# LAS format log file from PETREL
# Project units are specified as depth units
#==================================================================
~Version information
VERS.   2.0:
WRAP.   NO:
#==================================================================
~Well
STRT .m      172.51680000 :
STOP .m      3749.8020000 :
STEP .m     0.15240000 :
NULL .        -999.250000 :
COMP.           : COMPANY
WELL.  15/9-F-14   : WELL
FLD.            : FIELD
LOC.            : LOCATION
SRVC.           : SERVICE COMPANY
DATE.  2019-09-28 20:20:01   : Log Export Date {yyyy-MM-dd HH:mm:ss}
PROV.           : PROVINCE
UWI.   5351   : UNIQUE WELL ID
API.            : API NUMBER
#==================================================================
~Curve
DEPT .m                   : DEPTH
GR .gAPI                  : GR
NPHI .m3/m3               : NPHI
RHOB .g/cm3               : RHOB
Vp .m/s                   : Vp
Vs .m/s                   : Vs
~Parameter
#==================================================================
~Ascii
# ...
 1353.9216000 88.435623169 0.2540999949 2.1443998814 2214.5202637  -999.250000
 1354.0740000 88.401679993 0.2540999949 2.1443998814 2212.6306152  -999.250000
 1354.2264000 87.163642883 0.2540999949 2.1443998814 2208.4951172  -999.250000
 1354.3788000 84.217819214 0.2540999949 2.1443998814 2200.3864746  -999.250000
 1354.5312000 81.977180481 0.2540999949 2.1443998814 2187.8479004  -999.250000
 1354.6836000 81.698265076 0.2540999949 2.1443998814 2184.1799316  -999.250000
 1354.8360000 81.698265076 0.2540999949 2.1443998814 2183.8872070  -999.250000
 1354.9884000 81.698265076 0.2540999949 2.1443998814 2183.8872070  -999.250000
 1355.1408000 84.035285950 0.2540999949 2.1443998814 2184.7944336  -999.250000
 1355.2932000 87.389358521 0.2540999949 2.1443998814 2196.2902832  -999.250000
 1355.4456000 87.422874451 0.2540999949 2.1443998814 2211.2910156  -999.250000
 1355.5980000 87.422874451 0.2540999949 2.1443998814 2211.2910156  -999.250000
 1355.7504000 87.383857727 0.2540999949 2.1443998814 2211.0590820  -999.250000
 1355.9028000 85.449989319 0.2540999949 2.1443998814 2204.4750977  -999.250000
 1356.0552000 84.552543640 0.2540999949 2.1443998814 2185.6069336  -999.250000
 1356.2076000 84.381233215 0.2540999949 2.1443998814 2185.6069336  -999.250000
 1356.3600000 84.149063110 0.2540999949 2.1443998814 2185.6069336  -999.250000
 1356.5124000 84.108955383 0.2540999949 2.1443998814 2185.6767578  -999.250000
 1356.6648000 82.038391113 0.2540999949 2.1443998814 2189.2431641  -999.250000
 1356.8172000 81.183532715 0.2540999949 2.1443998814 2189.2285156  -999.250000
 1356.9696000 81.162338257 0.2540999949 2.1443998814 2182.5180664  -999.250000
 1357.1220000 81.162338257 0.2540999949 2.1443998814 2182.5180664  -999.250000
 1357.2744000 83.674034119 0.2540999949 2.1443998814 2193.7084961  -999.250000
 1357.4268000 85.308578491 0.2540999949 2.1443998814 2178.4125977  -999.250000
 1357.5792000 85.308578491 0.2540999949 2.1443998814 2186.3833008  -999.250000
 1357.7316000 84.057815552 0.2540999949 2.1443998814 2191.9211426  -999.250000
 1357.8840000 82.715980530 0.2540999949 2.1443998814 2188.3295898  -999.250000
 1358.0364000 82.715980530 0.2540999949 2.1443998814 2178.7824707  -999.250000
 1358.1888000 83.345497131 0.2540999949 2.1443998814 2178.0769043  -999.250000
 1358.3412000 86.829612732 0.2540999949 2.1443998814 2173.6411133  -999.250000
 1358.4936000 89.509246826 0.2540999949 2.1443998814 2172.8300781  -999.250000
 1358.6460000 89.913200378 0.2540999949 2.1443998814 2172.8300781  -999.250000
 1358.7984000 89.913200378 0.2540999949 2.1443998814 2174.3588867  -999.250000
 1358.9508000 89.887985229 0.2540999949 2.1443998814 2176.4069824  -999.250000
 1359.1032000 89.566131592 0.2540999949 2.1443998814 2184.6306152  -999.250000
 1359.2556000 88.999237061 0.2540999949 2.1443998814 2190.6228027  -999.250000
 1359.4080000 88.407348633 0.2540999949 2.1443998814 2191.7526855  -999.250000
 1359.5604000 87.261558533 0.2540999949 2.1443998814 2195.1916504  -999.250000
 1359.7128000 85.214370728 0.2540999949 2.1443998814 2203.3422852  -999.250000
 1359.8652000 83.390594482 0.2540999949 2.1443998814 2208.2167969  -999.250000
 1360.0176000 83.390594482 0.2540999949 2.1443998814 2212.0957031  -999.250000
 1360.1700000 83.392944336 0.2540999949 2.1443998814 2214.4736328  -999.250000
 1360.3224000 83.845153809 0.2540999949 2.1443998814 2214.5490723  -999.250000
 1360.4748000 84.024932861 0.2540999949 2.1443998814 2214.5490723  -999.250000
 1360.6272000 84.024948120 0.2540999949 2.1443998814 2211.4150391  -999.250000
 1360.7796000 84.024948120 0.2540999949 2.1443998814 2202.7416992  -999.250000
 1360.9320000 83.437934875 0.2540999949 2.1443998814 2202.7416992  -999.250000
 1361.0844000 82.795829773 0.2540999949 2.1443998814 2202.7695313  -999.250000
 1361.2368000 82.152954102 0.2540999949 2.1443998814 2203.9064941  -999.250000
 1361.3892000 81.506866455 0.2540999949 2.1443998814 2211.7885742  -999.250000
 1361.5416000 80.997695923 0.2540999949 2.1443998814 2217.8471680  -999.250000
 1361.6940000 80.968376160 0.2540999949 2.1443998814 2219.9392090  -999.250000
 1361.8464000 80.968376160 0.2540999949 2.1443998814 2216.5068359  -999.250000
 1361.9988000 80.977630615 0.2540999949 2.1443998814 2210.5493164  -999.250000
 1362.1512000 83.174400330 0.2540999949 2.1443998814 2220.5627441  -999.250000
 1362.3036000 86.019950867 0.2540999949 2.1443998814 2203.2702637  -999.250000
 1362.4560000 86.376350403 0.2540999949 2.1443998814 2198.7487793  -999.250000
 1362.6084000 86.376350403 0.2540999949 2.1443998814 2198.7487793  -999.250000
 1362.7608000 84.017791748 0.2540999949 2.1443998814 2197.2849121  -999.250000
 1362.9132000 82.552444458 0.2540999949 2.1443998814 2189.6291504  -999.250000
 1363.0656000 82.552444458 0.2540999949 2.1443998814 2186.8986816  -999.250000
 1363.2180000 82.985275269 0.2540999949 2.1443998814 2186.8623047  -999.250000
 1363.3704000 84.950439453 0.2540999949 2.1443998814 2186.8623047  -999.250000
 1363.5228000 87.806678772 0.2540999949 2.1443998814 2203.5939941  -999.250000
 1363.6752000 91.385604858 0.2540999949 2.1443998814 2226.5297852  -999.250000
 1363.8276000 93.113426208 0.2540999949 2.1443998814 2228.1450195  -999.250000
 1363.9800000 93.113426208 0.2540999949 2.1443998814 2228.1450195  -999.250000
 1364.1324000 92.795783997 0.2540999949 2.1443998814 2212.4370117  -999.250000
 1364.2848000 90.956748962 0.2540999949 2.1443998814 2208.2326660  -999.250000
 1364.4372000 90.163352966 0.2540999949 2.1443998814 2208.2326660  -999.250000
 1364.5896000 90.163352966 0.2540999949 2.1443998814 2209.4118652  -999.250000
 1364.7420000 90.626426697 0.2540999949 2.1443998814 2226.8750000  -999.250000
 1364.8944000 96.181091309 0.2540999949 2.1443998814 2255.7324219  -999.250000
 1365.0468000 99.229431152 0.2540999949 2.1443998814 2261.5778809  -999.250000
 1365.1992000 99.326499939 0.2540999949 2.1443998814 2261.5778809  -999.250000
 1365.3516000 99.326499939 0.2540999949 2.1443998814 2259.4091797  -999.250000
 1365.5040000 99.310379028 0.2540999949 2.1443998814 2255.3378906  -999.250000
 1365.6564000 97.902038574 0.2540999949 2.1443998814 2254.2023926  -999.250000
 1365.8088000 96.469955444 0.2540999949 2.1443998814 2251.9306641  -999.250000
 1365.9612000 95.044792175 0.2540999949 2.1443998814 2238.4128418  -999.250000
 1366.1136000 94.691009521 0.2540999949 2.1443998814 2211.9257813  -999.250000
 1366.2660000 94.690460205 0.2540999949 2.1443998814 2201.1320801  -999.250000
 1366.4184000 94.690460205 0.2540999949 2.1443998814 2200.9619141  -999.250000
 1366.5708000 95.299568176 0.2540999949 2.1443998814 2200.9619141  -999.250000
 1366.7232000 96.626861572 0.2540999949 2.1443998814 2202.7465820  -999.250000
 1366.8756000 98.023773193 0.2540999949 2.1443998814 2229.3193359  -999.250000
 1367.0280000 98.092666626 0.2540999949 2.1443998814 2255.7280273  -999.250000
 1367.1804000 98.092666626 0.2540999949 2.1443998814 2255.7280273  -999.250000
 1367.3328000 98.092666626 0.2540999949 2.1443998814 2255.7280273  -999.250000
 1367.4852000 98.092666626 0.2540999949 2.1443998814 2255.7280273  -999.250000
 1367.6376000 99.683227539 0.2540999949 2.1443998814 2255.8046875  -999.250000
 1367.7900000 103.41025543 0.2540999949 2.1443998814 2269.2221680  -999.250000
 1367.9424000 104.83255768 0.2540999949 2.1443998814 2284.1635742  -999.250000
 1368.0948000 104.93787384 0.2540999949 2.1443998814 2306.3449707  -999.250000
 1368.2472000 104.93787384 0.2540999949 2.1443998814 2306.6591797  -999.250000
 1368.3996000 104.41800690 0.2540999949 2.1443998814 2306.6601563  -999.250000
 1368.5520000 103.28713226 0.2540999949 2.1443998814 2306.4543457  -999.250000
 1368.7044000 102.86773682 0.2540999949 2.1443998814 2298.6091309  -999.250000
 1368.8568000 102.81690979 0.2540999949 2.1443998814 2298.1628418  -999.250000
 1369.0092000 102.81690979 0.2540999949 2.1443998814 2298.1628418  -999.250000
 1369.1616000 103.49359894 0.2540999949 2.1443998814 2300.2514648  -999.250000
 1369.3140000 106.55026245 0.2540999949 2.1443998814 2318.3107910  -999.250000
