# LAS format log file from PETREL
# Project units are specified as depth units
#==================================================================
~Version information
VERS.   2.0:
WRAP.   NO:
#==================================================================
~Well
STRT .m      172.51680000 :
STOP .m      3749.8020000 :
STEP .m     0.15240000 :
NULL .        -999.250000 :
COMP.           : COMPANY
WELL.  15/9-F-14   : WELL
FLD.            : FIELD
LOC.            : LOCATION
SRVC.           : SERVICE COMPANY
DATE.  2019-09-28 20:20:01   : Log Export Date {yyyy-MM-dd HH:mm:ss}
PROV.           : PROVINCE
UWI.   5351   : UNIQUE WELL ID
API.            : API NUMBER
#==================================================================
~Curve
DEPT .m                   : DEPTH
GR .gAPI                  : GR
NPHI .m3/m3               : NPHI
RHOB .g/cm3               : RHOB
Vp .m/s                   : Vp
Vs .m/s                   : Vs
~Parameter
#==================================================================
~Ascii
# ...
 1835.8104000 97.373893738 0.2540999949 2.1443998814 2434.4533691  -999.250000
 1835.9628000 97.373893738 0.2540999949 2.1443998814 2427.8532715  -999.250000
 1836.1152000 97.180038452 0.2540999949 2.1443998814 2422.7827148  -999.250000
 1836.2676000 95.898529053 0.2540999949 2.1443998814 2407.2878418  -999.250000
 1836.4200000 94.785537720 0.2540999949 2.1443998814 2395.6979980  -999.250000
 1836.5724000 94.785537720 0.2540999949 2.1443998814 2407.8090820  -999.250000
 1836.7248000 94.812026978 0.2540999949 2.1443998814 2414.9729004  -999.250000
 1836.8772000 95.193321228 0.2540999949 2.1443998814 2414.9729004  -999.250000
 1837.0296000 95.193321228 0.2540999949 2.1443998814 2414.9729004  -999.250000
 1837.1820000 95.193321228 0.2540999949 2.1443998814 2414.9729004  -999.250000
 1837.3344000 91.976699829 0.2540999949 2.1443998814 2417.8876953  -999.250000
 1837.4868000 91.793395996 0.2540999949 2.1443998814 2434.6013184  -999.250000
 1837.6392000 91.793395996 0.2540999949 2.1443998814 2404.4907227  -999.250000
 1837.7916000 94.920097351 0.2540999949 2.1443998814 2391.8645020  -999.250000
 1837.9440000 99.470993042 0.2540999949 2.1443998814 2394.1257324  -999.250000
 1838.0964000 100.35753632 0.2540999949 2.1443998814 2394.1520996  -999.250000
 1838.2488000 100.35753632 0.2540999949 2.1443998814 2393.9626465  -999.250000
 1838.4012000 100.19316101 0.2540999949 2.1443998814 2393.9379883  -999.250000
 1838.5536000 98.628112793 0.2540999949 2.1443998814 2393.9379883  -999.250000
 1838.7060000 96.603752136 0.2540999949 2.1443998814 2392.2814941  -999.250000
 1838.8584000 96.603752136 0.2540999949 2.1443998814 2383.4946289  -999.250000
 1839.0108000 96.603752136 0.2540999949 2.1443998814 2373.9604492  -999.250000
 1839.1632000 96.604278564 0.2540999949 2.1443998814 2363.9177246  -999.250000
 1839.3156000 102.50894928 0.2540999949 2.1443998814 2351.7258301  -999.250000
 1839.4680000 102.69147491 0.2540999949 2.1443998814 2351.6386719  -999.250000
 1839.6204000 102.69147491 0.2540999949 2.1443998814 2351.0524902  -999.250000
 1839.7728000 104.00075531 0.2540999949 2.1443998814 2337.2934570  -999.250000
 1839.9252000 104.43550873 0.2540999949 2.1443998814 2337.2934570  -999.250000
 1840.0776000 104.43550873 0.2540999949 2.1443998814 2337.2934570  -999.250000
 1840.2300000 107.57882690 0.2540999949 2.1443998814 2349.9313965  -999.250000
 1840.3824000 111.77560425 0.2540999949 2.1443998814 2351.0412598  -999.250000
 1840.5348000 111.77560425 0.2540999949 2.1443998814 2356.8095703  -999.250000
 1840.6872000 111.14299011 0.2540999949 2.1443998814 2358.6823730  -999.250000
 1840.8396000 106.42115021 0.2540999949 2.1443998814 2358.6823730  -999.250000
 1840.9920000 105.81100464 0.2540999949 2.1443998814 2350.8579102  -999.250000
 1841.1444000 105.81100464 0.2540999949 2.1443998814 2340.6101074  -999.250000
 1841.2968000 105.81100464 0.2540999949 2.1443998814 2340.6101074  -999.250000
 1841.4492000 108.66663361 0.2540999949 2.1443998814 2341.0964355  -999.250000
 1841.6016000 109.73545074 0.2540999949 2.1443998814 2345.6286621  -999.250000
 1841.7540000 109.78500366 0.2540999949 2.1443998814 2348.7287598  -999.250000
 1841.9064000 109.81436920 0.2540999949 2.1443998814 2374.5617676  -999.250000
 1842.0588000 110.12569427 0.2540999949 2.1443998814 2376.6760254  -999.250000
 1842.2112000 110.91458893 0.2540999949 2.1443998814 2376.6860352  -999.250000
 1842.3636000 111.82041168 0.2540999949 2.1443998814 2376.6860352  -999.250000
 1842.5160000 112.66201782 0.2540999949 2.1443998814 2339.3259277  -999.250000
 1842.6684000 113.49065399 0.2540999949 2.1443998814 2308.2412109  -999.250000
 1842.8208000 114.33007050 0.2540999949 2.1443998814 2304.7075195  -999.250000
 1842.9732000 115.13858032 0.2540999949 2.1443998814 2304.7075195  -999.250000
 1843.1256000 115.50736237 0.2540999949 2.1443998814 2315.3605957  -999.250000
 1843.2780000 115.50736237 0.2540999949 2.1443998814 2334.1877441  -999.250000
 1843.4304000 115.50736237 0.2540999949 2.1443998814 2338.1630859  -999.250000
 1843.5828000 113.64082336 0.2540999949 2.1443998814 2350.3242188  -999.250000
 1843.7352000 109.21414185 0.2540999949 2.1443998814 2350.2121582  -999.250000
 1843.8876000 104.21421051 0.2540999949 2.1443998814 2345.6306152  -999.250000
 1844.0400000 101.74642181 0.2540999949 2.1443998814 2339.3154297  -999.250000
 1844.1924000 101.41551208 0.2540999949 2.1443998814 2345.7202148  -999.250000
 1844.3448000 101.41551208 0.2540999949 2.1443998814 2345.9052734  -999.250000
 1844.4972000 101.44787598 0.2540999949 2.1443998814 2340.3237305  -999.250000
 1844.6496000 101.62228394 0.2540999949 2.1443998814 2339.3056641  -999.250000
 1844.8020000 101.73520660 0.2540999949 2.1443998814 2342.5920410  -999.250000
 1844.9544000 101.73520660 0.2540999949 2.1443998814 2344.3364258  -999.250000
 1845.1068000 101.73134613 0.2540999949 2.1443998814 2344.3364258  -999.250000
 1845.2592000 101.40975189 0.2540999949 2.1443998814 2362.8996582  -999.250000
 1845.4116000 101.06486511 0.2540999949 2.1443998814 2402.2656250  -999.250000
 1845.5640000 99.394035339 0.2540999949 2.1443998814 2402.2656250  -999.250000
 1845.7164000 95.456230164 0.2540999949 2.1443998814 2399.1047363  -999.250000
 1845.8688000 95.054603577 0.2540999949 2.1443998814 2307.1560059  -999.250000
 1846.0212000 95.054603577 0.2540999949 2.1443998814 2174.6108398  -999.250000
 1846.1736000 97.330429077 0.2540999949 2.1443998814 2174.6079102  -999.250000
 1846.3260000 105.34411621 0.2540999949 2.1443998814 2174.6079102  -999.250000
 1846.4784000 109.01454926 0.2540999949 2.1443998814 2192.3813477  -999.250000
 1846.6308000 109.01454926 0.2540999949 2.1443998814 2266.1711426  -999.250000
 1846.7832000 109.14999390 0.2540999949 2.1443998814 2412.3759766  -999.250000
 1846.9356000 109.93004608 0.2540999949 2.1443998814 2449.2778320  -999.250000
 1847.0880000 109.94046021 0.2540999949 2.1443998814 2449.2778320  -999.250000
 1847.2404000 110.38426971 0.2540999949 2.1443998814 2448.0925293  -999.250000
 1847.3928000 110.38426971 0.2540999949 2.1443998814 2433.4643555  -999.250000
 1847.5452000 110.38426971 0.2540999949 2.1443998814 2404.3964844  -999.250000
 1847.6976000 109.71705627 0.2540999949 2.1443998814 2397.3532715  -999.250000
 1847.8500000 107.34766388 0.2540999949 2.1443998814 2382.1704102  -999.250000
 1848.0024000 106.92052460 0.2540999949 2.1443998814 2380.4602051  -999.250000
 1848.1548000 106.92052460 0.2540999949 2.1443998814 2366.8742676  -999.250000
 1848.3072000 107.39121246 0.2540999949 2.1443998814 2366.6984863  -999.250000
 1848.4596000 109.05107880 0.2540999949 2.1443998814 2362.1914063  -999.250000
 1848.6120000 111.23952484 0.2540999949 2.1443998814 2358.5573730  -999.250000
 1848.7644000 112.81198120 0.2540999949 2.1443998814 2360.0939941  -999.250000
 1848.9168000 112.81198120 0.2540999949 2.1443998814 2360.9675293  -999.250000
 1849.0692000 112.75747681 0.2540999949 2.1443998814 2361.6481934  -999.250000
 1849.2216000 109.93646240 0.2540999949 2.1443998814 2364.7600098  -999.250000
 1849.3740000 107.48271942 0.2540999949 2.1443998814 2368.4086914  -999.250000
 1849.5264000 107.46943665 0.2540999949 2.1443998814 2373.7871094  -999.250000
 1849.6788000 107.46943665 0.2540999949 2.1443998814 2388.9067383  -999.250000
 1849.8312000 110.31150818 0.2540999949 2.1443998814 2391.8244629  -999.250000
 1849.9836000 110.98984528 0.2540999949 2.1443998814 2397.2058105  -999.250000
 1850.1360000 110.98984528 0.2540999949 2.1443998814 2411.2800293  -999.250000
 1850.2884000 109.19857788 0.2540999949 2.1443998814 2452.5432129  -999.250000
 1850.4408000 104.60615540 0.2540999949 2.1443998814 2454.2897949  -999.250000
 1850.5932000 101.65181732 0.2540999949 2.1443998814 2454.2897949  -999.250000
 1850.7456000 100.44367981 0.2540999949 2.1443998814 2426.5654297  -999.250000
 1850.8980000 100.44367981 0.2540999949 2.1443998814 2410.2351074  -999.250000
 1851.0504000 100.65254974 0.2540999949 2.1443998814 2404.6362305  -999.250000
 1851.2028000 110.33502960 0.2540999949 2.1443998814 2403.4641113  -999.250000
