# LAS format log file from PETREL
# Project units are specified as depth units
#==================================================================
~Version information
VERS.   2.0:
WRAP.   NO:
#==================================================================
~Well
STRT .m      172.51680000 :
STOP .m      3749.8020000 :
STEP .m     0.15240000 :
NULL .        -999.250000 :
COMP.           : COMPANY
WELL.  15/9-F-14   : WELL
FLD.            : FIELD
LOC.            : LOCATION
SRVC.           : SERVICE COMPANY
DATE.  2019-09-28 20:20:01   : Log Export Date {yyyy-MM-dd HH:mm:ss}
PROV.           : PROVINCE
UWI.   5351   : UNIQUE WELL ID
API.            : API NUMBER
#==================================================================
~Curve
DEPT .m                   : DEPTH
GR .gAPI                  : GR
NPHI .m3/m3               : NPHI
RHOB .g/cm3               : RHOB
Vp .m/s                   : Vp
Vs .m/s                   : Vs
~Parameter
#==================================================================
~Ascii
# ...
 3499.1040000 13.953299522 0.1474999934 2.2437000275 3947.3903809 2460.0585938
 3499.2564000 14.002697945 0.1381999999 2.2406001091 3944.8576660 2453.1828613
 3499.4088000 14.717999458 0.1407999992 2.2441000938 3942.7929688 2445.2348633
 3499.5612000 15.804136276 0.1327999979 2.2423000336 3942.7929688 2437.9968262
 3499.7136000 17.105922699 0.1282580197 2.2425000668 3940.9042969 2431.5385742
 3499.8660000 17.328744888 0.1376053393 2.2307000160 3928.1618652 2426.8437500
 3500.0184000 17.412197113 0.1469526738 2.2190999985 3911.9824219 2420.5317383
 3500.1708000 17.475185394 0.1562999934 2.2184000015 3890.5981445 2409.3608398
 3500.3232000 17.493238449 0.1590999961 2.2249000072 3858.4013672 2408.9189453
 3500.4756000 17.493238449 0.1520999968 2.2273001671 3842.8508301 2416.0668945
 3500.6280000 17.482574463 0.1494999975 2.2342998981 3842.8508301 2430.4426270
 3500.7804000 17.423185349 0.1520999968 2.2358000278 3842.8508301 2441.5385742
 3500.9328000 17.241743088 0.1567000002 2.2334001064 3842.8508301 2424.8051758
 3501.0852000 16.933647156 0.1485999972 2.2288999557 3792.5649414 2406.1015625
 3501.2376000 16.642337799 0.1513999999 2.2321000099 3709.3281250 2392.8247070
 3501.3900000 16.245130539 0.1632000059 2.2555000782 3709.2919922 2382.2219238
 3501.5424000 15.637504578 0.1557999998 2.2563333511 3709.2919922 2374.8571777
 3501.6948000 15.337280273 0.1538999975 2.2571666241 3709.2919922 2385.9572754
 3501.8472000 15.197194099 0.1579000056 2.2579998970 3713.1250000 2398.0178223
 3501.9996000 15.194032669 0.1553999931 2.2407999039 3735.0671387 2386.4758301
 3502.1520000 15.190087318 0.1590999961 2.2256000042 3772.2917480 2381.3588867
 3502.3044000 14.916365623 0.1536000073 2.2335999012 3804.6931152 2381.5004883
 3502.4568000 14.793621063 0.1500000060 2.2323999405 3805.1452637 2384.0947266
 3502.6092000 14.793621063 0.1518000066 2.2432000637 3805.7309570 2392.3281250
 3502.7616000 15.012822151 0.1547999978 2.2335999012 3807.5419922 2399.0456543
 3502.9140000 15.616665840 0.1492999941 2.2349998951 3807.9360352 2404.6123047
 3503.0664000 15.748855591 0.1620000005 2.2290000916 3807.9360352 2407.7724609
 3503.2188000 15.868611336 0.1647000015 2.2355999947 3826.7331543 2413.8598633
 3503.3712000 16.275880814 0.1576000005 2.2365999222 3866.8930664 2427.6450195
 3503.5236000 16.417156219 0.1556999981 2.2455000877 3899.3076172 2432.8286133
 3503.6760000 16.417156219 0.1567000002 2.2435998917 3910.4567871 2435.5400391
 3503.8284000 16.278175354 0.1578000039 2.2407000065 3910.4567871 2444.5546875
 3503.9808000 15.967945099 0.1448999941 2.2360000610 3910.4567871 2451.2692871
 3504.1332000 15.963450432 0.1497000009 2.2276000977 3910.4567871 2452.1440430
 3504.2856000 15.973489761 0.1568000019 2.2228999138 3909.9145508 2449.1884766
 3504.4380000 16.296762466 0.1532000005 2.2186999321 3907.5783691 2428.3012695
 3504.5904000 16.378868103 0.1632999927 2.2169001102 3858.4975586 2411.5234375
 3504.7428000 16.081520081 0.1632999927 2.2151000500 3812.1555176 2397.0043945
 3504.8952000 15.587238312 0.1620999873 2.2107000351 3786.7053223 2380.8713379
 3505.0476000 15.557395935 0.1608999968 2.2439999580 3783.3205566 2373.5971680
 3505.2000000 15.527554512 0.1494999975 2.2501833439 3783.3205566 2376.6157227
 3505.3524000 15.900110245 0.1468999982 2.2563667297 3783.3205566 2382.9948730
 3505.5048000 15.900110245 0.1515000015 2.2448332310 3783.2797852 2394.3076172
 3505.6572000 15.900110245 0.1607999951 2.2332999706 3779.5888672 2396.3581543
 3505.8096000 15.900110245 0.1504999995 2.2353000641 3782.2727051 2396.7834473
 3505.9620000 15.911203384 0.1597999930 2.2053999901 3815.4707031 2391.2121582
 3506.1144000 15.961327553 0.1587000042 2.2054998875 3821.2380371 2387.4267578
 3506.2668000 16.407764435 0.1560000032 2.2118000984 3821.2380371 2395.2763672
 3506.4192000 16.868249893 0.1599999964 2.2239999771 3799.3881836 2396.0839844
 3506.5716000 17.056623459 0.1561000049 2.2356998920 3776.4748535 2387.2541504
 3506.7240000 17.090869904 0.1571000069 2.2404999733 3776.4748535 2378.6701660
 3506.8764000 17.090869904 0.1518000066 2.2339999676 3782.4604492 2372.7802734
 3507.0288000 17.090869904 0.1574999988 2.2239000797 3821.7861328 2378.8022461
 3507.1812000 17.090869904 0.1620499939 2.2253999710 3827.8129883 2384.6474609
 3507.3336000 16.631099701 0.1632750034 2.2237000465 3827.8129883 2386.6230469
 3507.4860000 16.311147690 0.1644999981 2.2181000710 3837.8435059 2383.6516113
 3507.6384000 16.311147690 0.1579000056 2.2146000862 3863.8579102 2370.9475098
 3507.7908000 16.299087524 0.1599999964 2.2212998867 3925.8312988 2375.2507324
 3507.9432000 16.208517075 0.1567000002 2.2307000160 3960.9963379 2384.2380371
 3508.0956000 15.503314018 0.1538999975 2.2295000553 3973.8710938 2385.7917480
 3508.2480000 14.556817055 0.1553999931 2.2260999680 3974.9780273 2386.1682129
 3508.4004000 14.712991714 0.1576000005 2.2258999348 3974.9780273 2385.8566895
 3508.5528000 14.812089920 0.1545999944 2.2353999615 3974.9780273 2386.5002441
 3508.7052000 14.812089920 0.1616999954 2.2376999855 3972.6520996 2390.9350586
 3508.8576000 14.770436287 0.1642999947 2.2416999340 3906.5781250 2404.9145508
 3509.0100000 14.623685837 0.1592999995 2.2399001122 3878.3596191 2421.6069336
 3509.1624000 14.614454269 0.1558166742 2.2434999943 3875.5126953 2425.0732422
 3509.3148000 14.614540100 0.1523333341 2.2432000637 3862.1115723 2427.3793945
 3509.4672000 14.700182915 0.1556666642 2.2451000214 3843.7407227 2429.2355957
 3509.6196000 14.876889229 0.1589999944 2.2327001095 3843.6372070 2433.6467285
 3509.7720000 15.209368706 0.1656000018 2.2253999710 3844.7316895 2440.5722656
 3509.9244000 15.274206161 0.1562999934 2.2267999649 3868.1682129 2417.6831055
 3510.0768000 15.274206161 0.1509000063 2.2562999725 3875.7465820 2364.8522949
 3510.2292000 15.274206161 0.1616999954 2.2390999794 3875.7465820 2310.9494629
 3510.3816000 15.272718430 0.1613000035 2.2476999760 3905.2707520 2272.3200684
 3510.5340000 14.903515816 0.1617999971 2.2216000557 3981.3725586 2248.6035156
 3510.6864000 14.492086411 0.1588999927 2.2411999702 4029.6437988 2257.2446289
 3510.8388000 14.204216957 0.1578000039 2.2321000099 4079.7736816 2307.2976074
 3510.9912000 14.155508041 0.1548999995 2.2423999310 4150.0986328 2370.3906250
 3511.1436000 14.151548386 0.1670999974 2.2486000061 4149.4375000 2412.9174805
 3511.2960000 14.146430016 0.1588999927 2.2499001026 4076.4904785 2414.7036133
 3511.4484000 14.143622398 0.1632000059 2.2435998917 4055.2470703 2418.7954102
 3511.6008000 14.148468018 0.1606999934 2.2441999912 4048.1638184 2433.3906250
 3511.7532000 14.150802612 0.1547999978 2.2425000668 4048.1628418 2425.8144531
 3511.9056000 14.150802612 0.1537999958 2.2432000637 4041.6423340 2394.8696289
 3512.0580000 14.497443199 0.1633999944 2.2534999847 3951.1794434 2381.7429199
 3512.2104000 15.410694122 0.1627999991 2.2606000900 3927.2209473 2377.0585938
 3512.3628000 15.437295914 0.1561000049 2.2695000172 3927.2209473 2415.8867188
 3512.5152000 15.437295914 0.1580000073 2.2704000473 3927.2209473 2481.4914551
 3512.6676000 15.437295914 0.1623000056 2.2722001076 3927.2275391 2575.3139648
 3512.8200000 15.437295914 0.1427000016 2.2744998932 3946.2014160 2583.5068359
 3512.9724000 15.437295914 0.1582999974 2.2815999985 3965.1450195 2573.1352539
 3513.1248000 15.437295914 0.1387999952 2.2913999557 3972.6362305 2599.0693359
 3513.2772000 15.437295914 0.1375000030 2.3018000126 3983.2817383 2624.1289063
 3513.4296000 16.097600937 0.1439999938 2.3064000607 3995.7097168 2603.5712891
 3513.5820000 17.936853409 0.1360999942 2.3534998894 3996.3205566 2549.9121094
 3513.7344000 22.802049637 0.1298249960 2.3703999519 3996.3103027 2421.8740234
 3513.8868000 28.413623810 0.1275624931 2.3637499809 3992.3857422 2383.0341797
 3514.0392000 33.959575653 0.1374312490 2.3571000099 3992.8176270 2370.1979980
 3514.1916000 38.093391418 0.1473000050 2.3763000965 4018.3198242 2366.1171875
 3514.3440000 41.156463623 0.1509000063 2.3585999012 4023.7739258 2363.0915527
 3514.4964000 43.157222748 0.1538999975 2.3810000420 4023.7739258 2359.5615234
