# LAS format log file from PETREL
# Project units are specified as depth units
#==================================================================
~Version information
VERS.   2.0:
WRAP.   NO:
#==================================================================
~Well
STRT .m      172.51680000 :
STOP .m      3749.8020000 :
STEP .m     0.15240000 :
NULL .        -999.250000 :
COMP.           : COMPANY
WELL.  15/9-F-14   : WELL
FLD.            : FIELD
LOC.            : LOCATION
SRVC.           : SERVICE COMPANY
DATE.  2019-09-28 20:20:01   : Log Export Date {yyyy-MM-dd HH:mm:ss}
PROV.           : PROVINCE
UWI.   5351   : UNIQUE WELL ID
API.            : API NUMBER
#==================================================================
~Curve
DEPT .m                   : DEPTH
GR .gAPI                  : GR
NPHI .m3/m3               : NPHI
RHOB .g/cm3               : RHOB
Vp .m/s                   : Vp
Vs .m/s                   : Vs
~Parameter
#==================================================================
~Ascii
# ...
 3732.2760000 49.289054871 0.1714999974 2.3671000004  -999.250000  -999.250000
 3732.4284000 49.289054871 0.1764000058 2.3629000187  -999.250000  -999.250000
 3732.5808000 48.963878632 0.1787000000 2.3636999130  -999.250000  -999.250000
 3732.7332000 47.893226624 0.1624999940 2.3705000877  -999.250000  -999.250000
 3732.8856000 47.835079193 0.1699000001 2.3838000298  -999.250000  -999.250000
 3733.0380000 47.835079193 0.1779000014 2.3831000328  -999.250000  -999.250000
 3733.1904000 47.835079193 0.1823000014 2.3838000298  -999.250000  -999.250000
 3733.3428000 47.882881165 0.1660999954 2.4022998810  -999.250000  -999.250000
 3733.4952000 48.564266205 0.1662999988 2.4039666653  -999.250000  -999.250000
 3733.6476000 50.423801422 0.1680999994 2.4056332111  -999.250000  -999.250000
 3733.8000000 53.542072296 0.1754000038 2.4072999954  -999.250000  -999.250000
 3733.9524000 53.696815491 0.1736000031 2.3703999519  -999.250000  -999.250000
 3734.1048000 53.726737976 0.1739999950 2.3728001118  -999.250000  -999.250000
 3734.2572000 54.340240479 0.1744000018 2.3812999725  -999.250000  -999.250000
 3734.4096000 55.269401550 0.1675000042 2.3868999481  -999.250000  -999.250000
 3734.5620000 56.388015747 0.1668000072 2.3796999454  -999.250000  -999.250000
 3734.7144000 57.708999634 0.1667000055 2.3682999611  -999.250000  -999.250000
 3734.8668000 58.939861298 0.1714000106 2.3796000481  -999.250000  -999.250000
 3735.0192000 59.062122345 0.1761000007 2.3835000992  -999.250000  -999.250000
 3735.1716000 59.151123047 0.1715999991 2.3747999668  -999.250000  -999.250000
 3735.3240000 59.825805664 0.1752000004 2.3647000790  -999.250000  -999.250000
 3735.4764000 60.156501770 0.1715999991 2.3527998924  -999.250000  -999.250000
 3735.6288000 60.185531616 0.1747000068 2.3619999886  -999.250000  -999.250000
 3735.7812000 61.921325684 0.1650999933 2.3961999416  -999.250000  -999.250000
 3735.9336000 67.616539001 0.1583999991 2.4523000717  -999.250000  -999.250000
 3736.0860000 72.318374634 0.1583999991 2.5313000679  -999.250000  -999.250000
 3736.2384000 74.762977600 0.1583999991 2.5861001015  -999.250000  -999.250000
 3736.3908000 74.842483521 0.1583999991 2.6008999348  -999.250000  -999.250000
 3736.5432000 75.217681885 0.1583999991 2.6019001007  -999.250000  -999.250000
 3736.6956000 77.273612976 0.1583999991 2.5894000530  -999.250000  -999.250000
 3736.8480000 79.494110107 0.1583999991 2.5836999416  -999.250000  -999.250000
 3737.0004000 81.384750366 0.1583999991 2.5697999001  -999.250000  -999.250000
 3737.1528000 81.718360901 0.1583999991 2.5446000099  -999.250000  -999.250000
 3737.3052000 81.814804077 0.1583999991 2.5253999233  -999.250000  -999.250000
 3737.4576000 81.814804077 0.1583999991 2.5081999302  -999.250000  -999.250000
 3737.6100000 82.061157227 0.1583999991 2.5171999931  -999.250000  -999.250000
 3737.7624000 83.835029602 0.1583999991 2.5294001102  -999.250000  -999.250000
 3737.9148000 85.427879333 0.1583999991 2.5376000404  -999.250000  -999.250000
 3738.0672000 87.272964478 0.1583999991 2.5553998947  -999.250000  -999.250000
 3738.2196000 91.537452698 0.1583999991 2.5687003136  -999.250000  -999.250000
 3738.3720000 98.148933411 0.1583999991 2.5896999836  -999.250000  -999.250000
 3738.5244000 108.47677612 0.1583999991 2.5945000648  -999.250000  -999.250000
 3738.6768000 113.39230347 0.1583999991 2.5966999531  -999.250000  -999.250000
 3738.8292000 115.11139679 0.1583999991 2.5966999531  -999.250000  -999.250000
 3738.9816000 115.23178864 0.1583999991 2.5966999531  -999.250000  -999.250000
 3739.1340000 115.23178864 0.1583999991 2.5966999531  -999.250000  -999.250000
 3739.2864000 115.23178864 0.1583999991 2.5966999531  -999.250000  -999.250000
 3739.4388000 115.06616974 0.1583999991 2.5966999531  -999.250000  -999.250000
 3739.5912000 111.21804810 0.1583999991 2.5966999531  -999.250000  -999.250000
 3739.7436000 107.10610199 0.1583999991 2.5966999531  -999.250000  -999.250000
 3739.8960000 103.41921234 0.1583999991 2.5966999531  -999.250000  -999.250000
 3740.0484000 103.41921234 0.1583999991 2.5966999531  -999.250000  -999.250000
 3740.2008000 103.41921234 0.1583999991 2.5966999531  -999.250000  -999.250000
 3740.3532000  -999.250000 0.1583999991 2.5966999531  -999.250000  -999.250000
 3740.5056000  -999.250000 0.1583999991 2.5966999531  -999.250000  -999.250000
 3740.6580000  -999.250000 0.1583999991 2.5966999531  -999.250000  -999.250000
 3740.8104000  -999.250000 0.1583999991 2.5966999531  -999.250000  -999.250000
 3740.9628000  -999.250000 0.1583999991 2.5966999531  -999.250000  -999.250000
 3741.1152000  -999.250000 0.1583999991 2.5966999531  -999.250000  -999.250000
 3741.2676000  -999.250000 0.1583999991 2.5966999531  -999.250000  -999.250000
 3741.4200000  -999.250000 0.1583999991 2.5966999531  -999.250000  -999.250000
 3741.5724000  -999.250000 0.1583999991 2.5966999531  -999.250000  -999.250000
 3741.7248000  -999.250000 0.1583999991 2.5966999531  -999.250000  -999.250000
 3741.8772000  -999.250000 0.1583999991 2.5966999531  -999.250000  -999.250000
 3742.0296000  -999.250000 0.1583999991 2.5966999531  -999.250000  -999.250000
 3742.1820000  -999.250000 0.1583999991 2.5966999531  -999.250000  -999.250000
 3742.3344000  -999.250000 0.1583999991 2.5966999531  -999.250000  -999.250000
 3742.4868000  -999.250000 0.1583999991 2.5966999531  -999.250000  -999.250000
 3742.6392000  -999.250000 0.1583999991 2.5966999531  -999.250000  -999.250000
 3742.7916000  -999.250000 0.1583999991 2.5966999531  -999.250000  -999.250000
 3742.9440000  -999.250000 0.1583999991 2.5966999531  -999.250000  -999.250000
 3743.0964000  -999.250000 0.1583999991 2.5966999531  -999.250000  -999.250000
 3743.2488000  -999.250000 0.1583999991 2.5966999531  -999.250000  -999.250000
 3743.4012000  -999.250000 0.1583999991 2.5966999531  -999.250000  -999.250000
 3743.5536000  -999.250000 0.1583999991 2.5966999531  -999.250000  -999.250000
 3743.7060000  -999.250000 0.1583999991 2.5966999531  -999.250000  -999.250000
 3743.8584000  -999.250000 0.1583999991 2.5966999531  -999.250000  -999.250000
 3744.0108000  -999.250000 0.1583999991 2.5966999531  -999.250000  -999.250000
 3744.1632000  -999.250000 0.1583999991 2.5966999531  -999.250000  -999.250000
 3744.3156000  -999.250000 0.1583999991 2.5966999531  -999.250000  -999.250000
 3744.4680000  -999.250000 0.1583999991 2.5966999531  -999.250000  -999.250000
 3744.6204000  -999.250000 0.1583999991 2.5966999531  -999.250000  -999.250000
 3744.7728000  -999.250000 0.1583999991 2.5966999531  -999.250000  -999.250000
 3744.9252000  -999.250000 0.1583999991 2.5966999531  -999.250000  -999.250000
 3745.0776000  -999.250000 0.1583999991 2.5966999531  -999.250000  -999.250000
 3745.2300000  -999.250000 0.1583999991 2.5966999531  -999.250000  -999.250000
 3745.3824000  -999.250000 0.1583999991 2.5966999531  -999.250000  -999.250000
 3745.5348000  -999.250000 0.1583999991 2.5966999531  -999.250000  -999.250000
 3745.6872000  -999.250000 0.1583999991 2.5966999531  -999.250000  -999.250000
 3745.8396000  -999.250000 0.1583999991 2.5966999531  -999.250000  -999.250000
 3745.9920000  -999.250000 0.1583999991 2.5966999531  -999.250000  -999.250000
 3746.1444000  -999.250000 0.1583999991 2.5966999531  -999.250000  -999.250000
 3746.2968000  -999.250000 0.1583999991 2.5966999531  -999.250000  -999.250000
 3746.4492000  -999.250000 0.1583999991 2.5966999531  -999.250000  -999.250000
 3746.6016000  -999.250000 0.1583999991 2.5966999531  -999.250000  -999.250000
 3746.7540000  -999.250000 0.1583999991 2.5966999531  -999.250000  -999.250000
 3746.9064000  -999.250000 0.1583999991 2.5966999531  -999.250000  -999.250000
 3747.0588000  -999.250000 0.1583999991 2.5966999531  -999.250000  -999.250000
 3747.2112000  -999.250000 0.1583999991 2.5966999531  -999.250000  -999.250000
 3747.3636000  -999.250000 0.1583999991 2.5966999531  -999.250000  -999.250000
 3747.5160000  -999.250000 0.1583999991 2.5966999531  -999.250000  -999.250000
 3747.6684000  -999.250000 0.1583999991 2.5966999531  -999.250000  -999.250000
