# LAS format log file from PETREL
# Project units are specified as depth units
#==================================================================
~Version information
VERS.   2.0:
WRAP.   NO:
#==================================================================
~Well
STRT .m      172.51680000 :
STOP .m      3749.8020000 :
STEP .m     0.15240000 :
NULL .        -999.250000 :
COMP.           : COMPANY
WELL.  15/9-F-14   : WELL
FLD.            : FIELD
LOC.            : LOCATION
SRVC.           : SERVICE COMPANY
DATE.  2019-09-28 20:20:01   : Log Export Date {yyyy-MM-dd HH:mm:ss}
PROV.           : PROVINCE
UWI.   5351   : UNIQUE WELL ID
API.            : API NUMBER
#==================================================================
~Curve
DEPT .m                   : DEPTH
GR .gAPI                  : GR
NPHI .m3/m3               : NPHI
RHOB .g/cm3               : RHOB
Vp .m/s                   : Vp
Vs .m/s                   : Vs
~Parameter
#==================================================================
~Ascii
# ...
 2784.0432000 17.742343903 0.2427999973 2.1977999210 4506.6884766 2468.4768066
 2784.1956000 17.903568268 0.2540000081 2.1547000408 4521.5756836 2443.3032227
 2784.3480000 17.904516220 0.2524999976 2.1540999413 4521.5888672 2426.1701660
 2784.5004000 17.904516220 0.2552999854 2.1889998913 4521.5888672 2434.6149902
 2784.6528000 17.783348083 0.2547999918 2.2235999107 4521.5634766 2444.6870117
 2784.8052000 17.358966827 0.2567999959 2.2604999542 4521.5610352 2447.6135254
 2784.9576000 17.060035706 0.2481999993 2.2530999184 4543.5253906 2447.7075195
 2785.1100000 17.060035706 0.2442999929 2.2625999451 4563.7348633 2445.7885742
 2785.2624000 17.060035706 0.2333000004 2.2822000980 4566.2299805 2432.0285645
 2785.4148000 17.060035706 0.2446999997 2.3334000111 4595.8999023 2386.0437012
 2785.5672000 17.060035706 0.2176000029 2.3489999771 4609.7377930 2357.8527832
 2785.7196000 17.092111588 0.2176500112 2.3821001053 4610.9184570 2366.9616699
 2785.8720000 17.151927948 0.2177000046 2.4265000820 4610.9824219 2396.0964355
 2786.0244000 16.831686020 0.2182999998 2.4553000927 4610.9824219 2415.6193848
 2786.1768000 16.751548767 0.2189000100 2.4449999332 4610.9824219 2436.8630371
 2786.3292000 15.485473633 0.2195000052 2.4328999519 4610.9824219 2449.1950684
 2786.4816000 15.171584129 0.2282000035 2.4254000187 4610.9824219 2448.0966797
 2786.6340000 15.171584129 0.2527000010 2.4275000095 4596.5083008 2446.3110352
 2786.7864000 15.204041481 0.2486999929 2.4525001049 4584.1796875 2438.0163574
 2786.9388000 15.498413086 0.2407999933 2.4611999989 4573.7446289 2418.9035645
 2787.0912000 15.637876511 0.2414000034 2.4667999744 4568.9174805 2413.0270996
 2787.2436000 15.680718422 0.2502999902 2.4460000992 4568.8164063 2409.9968262
 2787.3960000 15.820243835 0.2445999980 2.4481999874 4565.2231445 2405.6479492
 2787.5484000 16.020143509 0.2308000028 2.4507000446 4560.3979492 2396.2707520
 2787.7008000 16.323751450 0.2536000013 2.4635999203 4562.9082031 2382.7707520
 2787.8532000 16.884677887 0.2518999875 2.4742999077 4566.8725586 2371.2285156
 2788.0056000 17.031608582 0.2425999939 2.4637999535 4574.5581055 2366.0385742
 2788.1580000 17.655208588 0.2481999993 2.4732999802 4586.2500000 2370.4343262
 2788.3104000 17.854152679 0.2680000067 2.4437999725 4586.2500000 2370.5612793
 2788.4628000 17.873823166 0.2309000045 2.4714999199 4586.2500000 2371.4101563
 2788.6152000 17.873823166 0.2049999982 2.4560000896 4586.2500000 2381.7316895
 2788.7676000 17.827383041 0.1680999994 2.4700999260 4586.2500000 2409.9287109
 2788.9200000 16.733917236 0.1336999983 2.4351000786 4596.0976563 2435.3581543
 2789.0724000 15.231979370 0.1510999948 2.4920001030 4618.4062500 2448.8186035
 2789.2248000 15.147214890 0.1451999992 2.5018999577 4618.4145508 2462.9782715
 2789.3772000 15.147214890 0.1453000009 2.5226998329 4620.5009766 2463.7001953
 2789.5296000 15.358260155 0.1413999945 2.5088000298 4627.5043945 2458.3190918
 2789.6820000 15.944142342 0.1371999979 2.5122001171 4640.3974609 2448.2365723
 2789.8344000 16.016342163 0.1342999935 2.5204000473 4650.7060547 2442.4582520
 2789.9868000 16.423110962 0.1359000057 2.5336999893 4653.7202148 2435.3894043
 2790.1392000 16.445384979 0.1333999932 2.5401999950 4653.7202148 2402.2392578
 2790.2916000 16.524768829 0.1344999969 2.5397000313 4653.7202148 2404.9421387
 2790.4440000 16.575519562 0.1359000057 2.5376000404 4549.1137695 2413.7045898
 2790.5964000 16.575519562 0.1378999949 2.5502998829 4471.6611328 2413.3898926
 2790.7488000 16.570150375 0.1323000044 2.5562000275 4459.0190430 2401.6860352
 2790.9012000 16.102302551 0.1305000037 2.5638999939 4459.0190430 2396.4904785
 2791.0536000 14.857245445 0.1330000013 2.5448999405 4465.4941406 2401.6738281
 2791.2060000 14.541254044 0.1336999983 2.5278999805 4586.0239258 2396.8381348
 2791.3584000 14.440419197 0.1305000037 2.5116000175 4586.2163086 2385.9802246
 2791.5108000 14.339474678 0.1360999942 2.4992001057 4586.2163086 2380.8339844
 2791.6632000 14.223711967 0.1394000053 2.5027999878 4579.7358398 2377.1635742
 2791.8156000 14.125230789 0.1410000026 2.4967000484 4559.7949219 2366.8723145
 2791.9680000 14.124990463 0.1442999989 2.5000000000 4541.4687500 2364.1960449
 2792.1204000 14.124990463 0.1455000043 2.5055000782 4532.6801758 2375.9765625
 2792.2728000 14.325678825 0.1421999931 2.5202000141 4530.3237305 2389.7861328
 2792.4252000 15.513912201 0.1450999975 2.5243999958 4481.6987305 2393.3457031
 2792.5776000 16.998542786 0.1423999965 2.5299000740 4469.2851563 2392.5693359
 2792.7300000 16.998542786 0.1442999989 2.5151998997 4469.2851563 2386.7473145
 2792.8824000 16.998542786 0.1439000070 2.5111000538 4475.4882813 2381.3684082
 2793.0348000 15.548978806 0.1439999938 2.4967000484 4541.7890625 2365.2468262
 2793.1872000 14.628601074 0.1500999928 2.4939999580 4600.2167969 2380.4472656
 2793.3396000 14.503540993 0.1519999951 2.4921000004 4601.2597656 2402.6130371
 2793.4920000 14.503540993 0.1462000012 2.4949998856 4601.2597656 2408.5361328
 2793.6444000 14.514521599 0.1427000016 2.4992001057 4584.2207031 2403.0080566
 2793.7968000 15.702286720 0.1433999985 2.5044000149 4500.2895508 2376.4531250
 2793.9492000 15.759342194 0.1501999944 2.5141999722 4400.0820313 2365.3940430
 2794.1016000 15.867846489 0.1488000005 2.5178000927 4383.4902344 2386.1811523
 2794.2540000 16.145187378 0.1501999944 2.5171999931 4379.1791992 2377.3159180
 2794.4064000 16.598012924 0.1507000029 2.5157999992 4342.5322266 2344.6320801
 2794.5588000 17.531373978 0.1449999958 2.5271000862 4245.1176758 2304.4018555
 2794.7112000 21.544725418 0.1407999992 2.5408999920 4193.0874023 2260.4899902
 2794.8636000 21.583217621 0.1428000033 2.5371000767 4193.0874023 2247.0292969
 2795.0160000 21.583217621 0.1430999935 2.5241000652 4193.0874023 2252.3427734
 2795.1684000 21.192783356 0.1466999948 2.5123999119 4365.7211914 2286.6696777
 2795.3208000 19.305881500 0.1497000009 2.5104999542 4535.7807617 2332.6228027
 2795.4732000 16.372476578 0.1468999982 2.5013999939 4596.3378906 2368.4833984
 2795.6256000 14.735789299 0.1485999972 2.4935998917 4605.2255859 2397.2346191
 2795.7780000 14.735036850 0.1474999934 2.4949998856 4605.2255859 2412.1997070
 2795.9304000 14.735036850 0.1491000056 2.5053000450 4605.0371094 2406.0651855
 2796.0828000 15.309592247 0.1458999962 2.5190000534 4554.0864258 2387.0368652
 2796.2352000 17.271028519 0.1460999995 2.5364000797 4497.5336914 2364.9169922
 2796.3876000 18.688003540 0.1404999942 2.5459001064 4490.0815430 2349.7443848
 2796.5400000 18.688003540 0.1395999938 2.5511999130 4490.0815430 2344.6977539
 2796.6924000 18.688003540 0.1295000017 2.5464999676 4506.4062500 2360.8552246
 2796.8448000 19.153133392 0.1280000061 2.5492999554 4599.2558594 2381.7873535
 2796.9972000 19.270868301 0.1271000057 2.5483000278 4599.2558594 2400.3703613
 2797.1496000 19.270868301 0.1246000007 2.5515000820 4599.2558594 2407.1455078
 2797.3020000 19.484514236 0.1270000041 2.5502998829 4559.1557617 2399.9853516
 2797.4544000 20.818382263 0.1266999990 2.5483999252 4473.1538086 2370.6198730
 2797.6068000 20.818382263 0.1322000027 2.5432000160 4421.0844727 2355.3537598
 2797.7592000 20.818382263 0.1327999979 2.5338997841 4408.7495117 2351.1979980
 2797.9116000 19.717309952 0.1398999989 2.5306000710 4402.5532227 2349.3225098
 2798.0640000 18.541612625 0.1437000036 2.5192000866 4324.8759766 2343.3376465
 2798.2164000 18.141416550 0.1437000036 2.5253000259 4314.3100586 2329.5109863
 2798.3688000 17.856599808 0.1437000036 2.5248000622 4313.9765625 2319.4523926
 2798.5212000 17.351169586 0.1432999969 2.5304000378 4313.9765625 2318.7092285
 2798.6736000 16.070692062 0.1420000046 2.5148999691 4325.7314453 2338.7487793
 2798.8260000 14.945655823 0.1439999938 2.5046999454 4461.0302734 2382.8288574
 2798.9784000 14.742836952 0.1519999951 2.4988999367 4461.0302734 2396.2932129
 2799.1308000 14.742836952 0.1493999958 2.5032999516 4461.0302734 2390.9191895
 2799.2832000 14.756384850 0.1451999992 2.5111000538 4448.9506836 2371.6533203
 2799.4356000 14.958878517 0.1447000057 2.5088999271 4411.4204102 2357.0358887
