# LAS format log file from PETREL
# Project units are specified as depth units
#==================================================================
~Version information
VERS.   2.0:
WRAP.   NO:
#==================================================================
~Well
STRT .m      172.51680000 :
STOP .m      3749.8020000 :
STEP .m     0.15240000 :
NULL .        -999.250000 :
COMP.           : COMPANY
WELL.  15/9-F-14   : WELL
FLD.            : FIELD
LOC.            : LOCATION
SRVC.           : SERVICE COMPANY
DATE.  2019-09-28 20:20:01   : Log Export Date {yyyy-MM-dd HH:mm:ss}
PROV.           : PROVINCE
UWI.   5351   : UNIQUE WELL ID
API.            : API NUMBER
#==================================================================
~Curve
DEPT .m                   : DEPTH
GR .gAPI                  : GR
NPHI .m3/m3               : NPHI
RHOB .g/cm3               : RHOB
Vp .m/s                   : Vp
Vs .m/s                   : Vs
~Parameter
#==================================================================
~Ascii
# ...
 887.57760000 78.415649414 0.2540999949 2.1443998814  -999.250000  -999.250000
 887.73000000 81.411598206 0.2540999949 2.1443998814  -999.250000  -999.250000
 887.88240000 84.609283447 0.2540999949 2.1443998814  -999.250000  -999.250000
 888.03480000 86.547538757 0.2540999949 2.1443998814  -999.250000  -999.250000
 888.18720000 86.873703003 0.2540999949 2.1443998814  -999.250000  -999.250000
 888.33960000 86.884681702 0.2540999949 2.1443998814  -999.250000  -999.250000
 888.49200000 86.884681702 0.2540999949 2.1443998814  -999.250000  -999.250000
 888.64440000 86.800521851 0.2540999949 2.1443998814  -999.250000  -999.250000
 888.79680000 86.590820313 0.2540999949 2.1443998814  -999.250000  -999.250000
 888.94920000 86.154579163 0.2540999949 2.1443998814  -999.250000  -999.250000
 889.10160000 84.608894348 0.2540999949 2.1443998814  -999.250000  -999.250000
 889.25400000 81.815841675 0.2540999949 2.1443998814  -999.250000  -999.250000
 889.40640000 79.236701965 0.2540999949 2.1443998814  -999.250000  -999.250000
 889.55880000 78.404388428 0.2540999949 2.1443998814  -999.250000  -999.250000
 889.71120000 78.404388428 0.2540999949 2.1443998814  -999.250000  -999.250000
 889.86360000 78.484718323 0.2540999949 2.1443998814  -999.250000  -999.250000
 890.01600000 78.927108765 0.2540999949 2.1443998814  -999.250000  -999.250000
 890.16840000 79.336692810 0.2540999949 2.1443998814  -999.250000  -999.250000
 890.32080000 79.585723877 0.2540999949 2.1443998814  -999.250000  -999.250000
 890.47320000 79.585723877 0.2540999949 2.1443998814  -999.250000  -999.250000
 890.62560000 79.542144775 0.2540999949 2.1443998814  -999.250000  -999.250000
 890.77800000 79.087593079 0.2540999949 2.1443998814  -999.250000  -999.250000
 890.93040000 78.887390137 0.2540999949 2.1443998814  -999.250000  -999.250000
 891.08280000 78.887390137 0.2540999949 2.1443998814  -999.250000  -999.250000
 891.23520000 78.904502869 0.2540999949 2.1443998814  -999.250000  -999.250000
 891.38760000 79.510437012 0.2540999949 2.1443998814  -999.250000  -999.250000
 891.54000000 80.224143982 0.2540999949 2.1443998814  -999.250000  -999.250000
 891.69240000 81.303527832 0.2540999949 2.1443998814  -999.250000  -999.250000
 891.84480000 81.303527832 0.2540999949 2.1443998814  -999.250000  -999.250000
 891.99720000 81.303283691 0.2540999949 2.1443998814  -999.250000  -999.250000
 892.14960000 79.404533386 0.2540999949 2.1443998814  -999.250000  -999.250000
 892.30200000 75.067886353 0.2540999949 2.1443998814  -999.250000  -999.250000
 892.45440000 70.708801270 0.2540999949 2.1443998814  -999.250000  -999.250000
 892.60680000 67.605331421 0.2540999949 2.1443998814  -999.250000  -999.250000
 892.75920000 65.041648865 0.2540999949 2.1443998814  -999.250000  -999.250000
 892.91160000 62.486854553 0.2540999949 2.1443998814  -999.250000  -999.250000
 893.06400000 59.927795410 0.2540999949 2.1443998814  -999.250000  -999.250000
 893.21640000 57.368907928 0.2540999949 2.1443998814  -999.250000  -999.250000
 893.36880000 54.810092926 0.2540999949 2.1443998814  -999.250000  -999.250000
 893.52120000 52.251205444 0.2540999949 2.1443998814  -999.250000  -999.250000
 893.67360000 49.692298889 0.2540999949 2.1443998814  -999.250000  -999.250000
 893.82600000 47.133399963 0.2540999949 2.1443998814  -999.250000  -999.250000
 893.97840000 44.574497223 0.2540999949 2.1443998814  -999.250000  -999.250000
 894.13080000 42.015613556 0.2540999949 2.1443998814  -999.250000  -999.250000
 894.28320000 39.456783295 0.2540999949 2.1443998814  -999.250000  -999.250000
 894.43560000 36.897907257 0.2540999949 2.1443998814  -999.250000  -999.250000
 894.58800000 34.339000702 0.2540999949 2.1443998814  -999.250000  -999.250000
 894.74040000 31.780099869 0.2540999949 2.1443998814  -999.250000  -999.250000
 894.89280000 29.221193314 0.2540999949 2.1443998814  -999.250000  -999.250000
 895.04520000 26.662487030 0.2540999949 2.1443998814  -999.250000  -999.250000
 895.19760000 24.120000839 0.2540999949 2.1443998814  -999.250000  -999.250000
 895.35000000 21.232400894 0.2540999949 2.1443998814  -999.250000  -999.250000
 895.50240000 19.316822052 0.2540999949 2.1443998814  -999.250000  -999.250000
 895.65480000 18.966190338 0.2540999949 2.1443998814  -999.250000  -999.250000
 895.80720000 18.924772263 0.2540999949 2.1443998814  -999.250000  -999.250000
 895.95960000 18.873916626 0.2540999949 2.1443998814  -999.250000  -999.250000
 896.11200000 18.823493958 0.2540999949 2.1443998814  -999.250000  -999.250000
 896.26440000 18.773105621 0.2540999949 2.1443998814  -999.250000  -999.250000
 896.41680000 18.722686768 0.2540999949 2.1443998814  -999.250000  -999.250000
 896.56920000 18.672210693 0.2540999949 2.1443998814  -999.250000  -999.250000
 896.72160000 18.621795654 0.2540999949 2.1443998814  -999.250000  -999.250000
 896.87400000 18.571403503 0.2540999949 2.1443998814  -999.250000  -999.250000
 897.02640000 18.520992279 0.2540999949 2.1443998814  -999.250000  -999.250000
 897.17880000 18.470506668 0.2540999949 2.1443998814  -999.250000  -999.250000
 897.33120000 18.420097351 0.2540999949 2.1443998814  -999.250000  -999.250000
 897.48360000 18.369701385 0.2540999949 2.1443998814  -999.250000  -999.250000
 897.63600000 18.319297791 0.2540999949 2.1443998814  -999.250000  -999.250000
 897.78840000 18.268802643 0.2540999949 2.1443998814  -999.250000  -999.250000
 897.94080000 18.218399048 0.2540999949 2.1443998814  -999.250000  -999.250000
 898.09320000 18.167999268 0.2540999949 2.1443998814  -999.250000  -999.250000
 898.24560000 18.117599487 0.2540999949 2.1443998814  -999.250000  -999.250000
 898.39800000 18.067100525 0.2540999949 2.1443998814  -999.250000  -999.250000
 898.55040000 18.016700745 0.2540999949 2.1443998814  -999.250000  -999.250000
 898.70280000 17.966299057 0.2540999949 2.1443998814  -999.250000  -999.250000
 898.85520000 17.915897369 0.2540999949 2.1443998814  -999.250000  -999.250000
 899.00760000 17.865404129 0.2540999949 2.1443998814  -999.250000  -999.250000
 899.16000000 17.814998627 0.2540999949 2.1443998814  -999.250000  -999.250000
 899.31240000 17.764602661 0.2540999949 2.1443998814  -999.250000  -999.250000
 899.46480000 17.714191437 0.2540999949 2.1443998814  -999.250000  -999.250000
 899.61720000 17.663707733 0.2540999949 2.1443998814  -999.250000  -999.250000
 899.76960000 17.613296509 0.2540999949 2.1443998814  -999.250000  -999.250000
 899.92200000 17.562902451 0.2540999949 2.1443998814  -999.250000  -999.250000
 900.07440000 17.512487411 0.2540999949 2.1443998814  -999.250000  -999.250000
 900.22680000 17.462015152 0.2540999949 2.1443998814  -999.250000  -999.250000
 900.37920000 17.411594391 0.2540999949 2.1443998814  -999.250000  -999.250000
 900.53160000 17.361206055 0.2540999949 2.1443998814  -999.250000  -999.250000
 900.68400000 17.310783386 0.2540999949 2.1443998814  -999.250000  -999.250000
 900.83640000 17.260316849 0.2540999949 2.1443998814  -999.250000  -999.250000
 900.98880000 17.209892273 0.2540999949 2.1443998814  -999.250000  -999.250000
 901.14120000 17.159507751 0.2540999949 2.1443998814  -999.250000  -999.250000
 901.29360000 17.109081268 0.2540999949 2.1443998814  -999.250000  -999.250000
 901.44600000 17.058618546 0.2540999949 2.1443998814  -999.250000  -999.250000
 901.59840000 17.008192062 0.2540999949 2.1443998814  -999.250000  -999.250000
 901.75080000 16.957799911 0.2540999949 2.1443998814  -999.250000  -999.250000
 901.90320000 16.907405853 0.2540999949 2.1443998814  -999.250000  -999.250000
 902.05560000 16.856983185 0.2540999949 2.1443998814  -999.250000  -999.250000
 902.20800000 16.806514740 0.2540999949 2.1443998814  -999.250000  -999.250000
 902.36040000 16.756093979 0.2540999949 2.1443998814  -999.250000  -999.250000
 902.51280000 16.705705643 0.2540999949 2.1443998814  -999.250000  -999.250000
 902.66520000 16.655288696 0.2540999949 2.1443998814  -999.250000  -999.250000
 902.81760000 16.604808807 0.2540999949 2.1443998814  -999.250000  -999.250000
 902.97000000 16.554395676 0.2540999949 2.1443998814  -999.250000  -999.250000
