# LAS format log file from PETREL
# Project units are specified as depth units
#==================================================================
~Version information
VERS.   2.0:
WRAP.   NO:
#==================================================================
~Well
STRT .m      172.51680000 :
STOP .m      3749.8020000 :
STEP .m     0.15240000 :
NULL .        -999.250000 :
COMP.           : COMPANY
WELL.  15/9-F-14   : WELL
FLD.            : FIELD
LOC.            : LOCATION
SRVC.           : SERVICE COMPANY
DATE.  2019-09-28 20:20:01   : Log Export Date {yyyy-MM-dd HH:mm:ss}
PROV.           : PROVINCE
UWI.   5351   : UNIQUE WELL ID
API.            : API NUMBER
#==================================================================
~Curve
DEPT .m                   : DEPTH
GR .gAPI                  : GR
NPHI .m3/m3               : NPHI
RHOB .g/cm3               : RHOB
Vp .m/s                   : Vp
Vs .m/s                   : Vs
~Parameter
#==================================================================
~Ascii
# ...
 3250.3872000 35.288654327 0.1409000009 2.4488999844 4251.8237305 1810.1831055
 3250.5396000 35.288654327 0.1433999985 2.4686000347 4251.8237305 1811.1639404
 3250.6920000 35.288654327 0.1379999965 2.4869000912 4251.8237305 1812.1462402
 3250.8444000 35.491493225 0.1428000033 2.4934000969 4223.3266602 1813.1296387
 3250.9968000 36.677356720 0.1361999959 2.5069999695 4159.8813477 1814.1141357
 3251.1492000 36.753711700 0.1404000074 2.5050001144 4047.9519043 1815.0997314
 3251.3016000 36.820034027 0.1386999935 2.5009000301 3932.9599609 1816.0860596
 3251.4540000 38.560523987 0.1548999995 2.4734001160 3843.0134277 1817.0729980
 3251.6064000 40.481319427 0.1696999967 2.4323000908 3790.2722168 1818.0617676
 3251.7588000 42.267887115 0.1888999939 2.4205000401 3783.6499023 1819.0517578
 3251.9112000 43.454612732 0.1812999994 2.4182000160 3783.6499023 1820.0426025
 3252.0636000 44.851032257 0.1840000004 2.4382998943 3783.6499023 1821.0345459
 3252.2160000 46.781036377 0.1867000014 2.4505000114 3786.0205078 1822.0277100
 3252.3684000 49.515468597 0.1728000045 2.4425001144 3808.6267090 1823.0217285
 3252.5208000 51.339614868 0.1693000048 2.4398999214 3933.1633301 1824.0167236
 3252.6732000 51.824951172 0.1726000011 2.4319999218 4148.7895508 1825.0126953
 3252.8256000 51.870468140 0.1658000052 2.4402999878 4364.5126953 1826.0101318
 3252.9780000 51.869674683 0.1569000036 2.4465000629 4477.6928711 1827.0087891
 3253.1304000 51.503376007 0.1676000059 2.4846000671 4525.2729492 1828.0084229
 3253.2828000 51.273799896 0.1608999968 2.5265998840 4525.2729492 1829.0091553
 3253.4352000 51.202865601 0.1652999967 2.5567998886 4525.2729492 1830.0108643
 3253.5876000 47.542247772 0.1463000029 2.5522000790 4525.2729492 1831.0130615
 3253.7400000 41.884403229 0.1431999952 2.5323998928 4512.3579102 1832.0167236
 3253.8924000 38.014904022 0.1389999986 2.5102000237 4498.3486328 1833.0219727
 3254.0448000 36.027545929 0.1341000050 2.4772000313 4494.5683594 1834.0283203
 3254.1972000 34.595584869 0.1412000060 2.4547998905 4494.2617188 1835.0356445
 3254.3496000 32.092491150 0.1532000005 2.4286999702 4494.2617188 1836.0440674
 3254.5020000 31.479490280 0.1561000049 2.4131000042 4494.2617188 1837.0531006
 3254.6544000 31.479490280 0.1499000043 2.3924002647 4494.2617188 1838.0632324
 3254.8068000 31.479490280 0.1536999941 2.3866000175 4494.2617188 1839.0749512
 3254.9592000 31.529743195 0.1580999941 2.3822999001 4395.2568359 1840.0877686
 3255.1116000 32.167343140 0.1717000008 2.3796999454 4227.4116211 1841.1019287
 3255.2640000 32.969264984 0.1790000051 2.3598001003 4069.4753418 1842.1173096
 3255.4164000 34.136741638 0.1843000054 2.3252000809 4055.8571777 1843.1333008
 3255.5688000 36.244251251 0.1873999983 2.2895998955 4055.8571777 1844.1496582
 3255.7212000 39.022178650 0.1978999972 2.2618999481 4055.8571777 1845.1679688
 3255.8736000 42.153984070 0.2143999934 2.2569000721 4055.8571777 1846.1877441
 3256.0260000 44.474426270 0.2038999945 2.2681000233 4055.8571777 1847.2084961
 3256.1784000 45.195606232 0.2078000009 2.2913000584 4055.8571777 1848.2303467
 3256.3308000 45.195606232 0.2307000011 2.3115000725 4037.3010254 1849.2532959
 3256.4832000 45.195606232 0.2153999954 2.3127000332 3853.8554688 1850.2770996
 3256.6356000 45.177074432 0.2170999944 2.2967998981 3618.0676270 1851.3020020
 3256.7880000 44.563591003 0.2328000069 2.2713999748 3450.7680664 1852.3281250
 3256.9404000 44.413581848 0.2243999988 2.2532999516 3418.7028809 1853.3555908
 3257.0928000 44.413581848 0.2363000065 2.2592999935 3414.8376465 1854.3843994
 3257.2452000 44.413581848 0.2308000028 2.2716000080 3414.8376465 1855.4143066
 3257.3976000 44.544231415 0.2412000000 2.2850999832 3414.8376465 1856.4453125
 3257.5500000 45.326538086 0.2458000034 2.2852001190 3414.9060059 1857.4772949
 3257.7024000 45.378864288 0.2233999968 2.2829999924 3415.6787109 1858.5098877
 3257.8548000 45.378864288 0.2248000056 2.2997999191 3419.1176758 1859.5438232
 3258.0072000 45.378864288 0.2252999991 2.3110001087 3431.2026367 1860.5794678
 3258.1596000 44.343303680 0.2102999985 2.3055000305 3491.0244141 1861.6162109
 3258.3120000 42.033687592 0.1995999962 2.2792999744 3523.2678223 1862.6541748
 3258.4644000 42.033645630 0.2240500003 2.2504000664 3535.5541992 1863.6928711
 3258.6168000 42.033645630 0.2485000044 2.2434000969 3535.5541992 1864.7326660
 3258.7692000 42.033645630 0.2347999960 2.2313001156 3531.4248047 1865.7736816
 3258.9216000 43.854869843 0.2104000002 2.2367999554 3510.4602051 1866.8161621
 3259.0740000 46.131649017 0.2149000019 2.2411999702 3508.4653320 1867.8598633
 3259.2264000 46.659606934 0.2196000069 2.2578999996 3503.7041016 1868.9047852
 3259.3788000 47.493896484 0.2202000022 2.2723000050 3446.2492676 1869.9509277
 3259.5312000 48.217823029 0.2157000005 2.2883000374 3436.5241699 1870.9978027
 3259.6836000 48.217823029 0.2298000008 2.2869000435 3436.5241699 1872.0454102
 3259.8360000 48.217823029 0.2220000029 2.2771000862 3436.5241699 1873.0944824
 3259.9884000 48.217823029 0.2250999957 2.2801001072 3437.4645996 1874.1450195
 3260.1408000 47.720840454 0.2043000013 2.3032000065 3441.4494629 1875.1972656
 3260.2932000 47.253414154 0.1958999932 2.3464999199 3441.6005859 1876.2506104
 3260.4456000 47.229061127 0.1953999996 2.3519999981 3441.6005859 1877.3048096
 3260.5980000 46.935535431 0.2081000060 2.3575000763 3441.6005859 1878.3598633
 3260.7504000 46.305885315 0.1934999973 2.3394000530 3409.3208008 1879.4160156
 3260.9028000 46.178363800 0.2029999942 2.3127999306 3338.4826660 1880.4737549
 3261.0552000 45.905689240 0.2027000040 2.3076000214 3338.4597168 1881.5327148
 3261.2076000 45.100963593 0.2254000008 2.2974998951 3337.9345703 1882.5928955
 3261.3600000 44.739185333 0.2093999982 2.3048000336 3334.7680664 1883.6544189
 3261.5124000 44.365921021 0.2155999988 2.3092000484 3334.5227051 1884.7166748
 3261.6648000 43.114871979 0.2109999955 2.3129000664 3334.3198242 1885.7796631
 3261.8172000 42.251857758 0.2194000036 2.2897000313 3326.1979980 1886.8446045
 3261.9696000 41.670036316 0.2193000019 2.2715001106 3321.7675781 1887.9110107
 3262.1220000 40.226032257 0.2108999938 2.2423999310 3319.7570801 1888.9783936
 3262.2744000 39.254524231 0.2225999981 2.2335999012 3221.7116699 1890.0469971
 3262.4268000 38.965187073 0.2287999988 2.2260000706 3147.3981934 1891.1168213
 3262.5792000 38.944129944 0.2240000069 2.2290000916 3140.5725098 1892.1873779
 3262.7316000 38.944129944 0.2369000018 2.2244000435 3140.1010742 1893.2591553
 3262.8840000 38.944129944 0.2348999977 2.2244999409 3140.1269531 1894.3325195
 3263.0364000 39.480083466 0.2328999937 2.2101998329 3146.0512695 1895.4072266
 3263.1888000 42.186893463 0.2379499972 2.2153000832 3153.6955566 1896.4830322
 3263.3412000 43.929496765 0.2430000007 2.2093000412 3161.9074707 1897.5601807
 3263.4936000 44.629547119 0.2431000024 2.2193000317 3198.3247070 1898.6385498
 3263.6460000 44.657054901 0.2317000031 2.2181999683 3225.0803223 1899.7180176
 3263.7984000 44.659488678 0.2368000001 2.2311999798 3225.0803223 1900.7983398
 3263.9508000 44.659488678 0.2474000007 2.2418000698 3226.1093750 1901.8798828
 3264.1032000 44.659488678 0.2377000004 2.2623999119 3230.5651855 1902.9631348
 3264.2556000 44.598976135 0.2301999927 2.2774999142 3238.6591797 1904.0477295
 3264.4080000 44.243862152 0.2296999991 2.2765498161 3248.4599609 1905.1335449
 3264.5604000 44.217407227 0.2347999960 2.2755999565 3258.0500488 1906.2205811
 3264.7128000 44.192218781 0.2274000049 2.2646000385 3258.6750488 1907.3084717
 3264.8652000 43.320644379 0.2301499993 2.2527000904 3258.6750488 1908.3970947
 3265.0176000 43.359680176 0.2328999937 2.2521998882 3258.6750488 1909.4875488
 3265.1700000 44.200477600 0.2433000058 2.2414999008 3241.8107910 1910.5794678
 3265.3224000 44.262123108 0.2299000025 2.2293999195 3189.2453613 1911.6728516
 3265.4748000 44.328491211 0.2500999868 2.2195999622 3188.4619141 1912.7675781
 3265.6272000 44.555408478 0.2358999997 2.2216999531 3186.9775391 1913.8632813
 3265.7796000 45.113800049 0.2347999960 2.2273001671 3172.2443848 1914.9594727
