# LAS format log file from PETREL
# Project units are specified as depth units
#==================================================================
~Version information
VERS.   2.0:
WRAP.   NO:
#==================================================================
~Well
STRT .m      172.51680000 :
STOP .m      3749.8020000 :
STEP .m     0.15240000 :
NULL .        -999.250000 :
COMP.           : COMPANY
WELL.  15/9-F-14   : WELL
FLD.            : FIELD
LOC.            : LOCATION
SRVC.           : SERVICE COMPANY
DATE.  2019-09-28 20:20:01   : Log Export Date {yyyy-MM-dd HH:mm:ss}
PROV.           : PROVINCE
UWI.   5351   : UNIQUE WELL ID
API.            : API NUMBER
#==================================================================
~Curve
DEPT .m                   : DEPTH
GR .gAPI                  : GR
NPHI .m3/m3               : NPHI
RHOB .g/cm3               : RHOB
Vp .m/s                   : Vp
Vs .m/s                   : Vs
~Parameter
#==================================================================
~Ascii
# ...
 2550.8712000 43.982757568 0.2540999949 2.1443998814 3640.6701660  -999.250000
 2551.0236000 43.808719635 0.2540999949 2.1443998814 3614.5305176  -999.250000
 2551.1760000 43.635219574 0.2540999949 2.1443998814 3576.5952148  -999.250000
 2551.3284000 43.472885132 0.2540999949 2.1443998814 3543.6989746  -999.250000
 2551.4808000 43.152408600 0.2540999949 2.1443998814 3517.8854980  -999.250000
 2551.6332000 42.339912415 0.2540999949 2.1443998814 3517.8854980  -999.250000
 2551.7856000 40.977790833 0.2540999949 2.1443998814 3517.8854980  -999.250000
 2551.9380000 39.785324097 0.2540999949 2.1443998814 3520.8776855  -999.250000
 2552.0904000 39.038665771 0.2540999949 2.1443998814 3527.1389160  -999.250000
 2552.2428000 38.985870361 0.2540999949 2.1443998814 3527.1389160  -999.250000
 2552.3952000 38.985870361 0.2540999949 2.1443998814 3527.1389160  -999.250000
 2552.5476000 39.072372437 0.2540999949 2.1443998814 3511.1413574  -999.250000
 2552.7000000 40.447235107 0.2540999949 2.1443998814 3497.8369141  -999.250000
 2552.8524000 40.865383148 0.2540999949 2.1443998814 3497.8369141  -999.250000
 2553.0048000 40.904102325 0.2540999949 2.1443998814 3497.8369141  -999.250000
 2553.1572000 40.904102325 0.2540999949 2.1443998814 3529.3559570  -999.250000
 2553.3096000 40.904102325 0.2540999949 2.1443998814 3709.6374512  -999.250000
 2553.4620000 40.904102325 0.2540999949 2.1443998814 3861.1469727  -999.250000
 2553.6144000 40.904102325 0.2540999949 2.1443998814 3861.1469727  -999.250000
 2553.7668000 41.423553467 0.2540999949 2.1443998814 3861.1469727  -999.250000
 2553.9192000 43.407272339 0.2540999949 2.1443998814 3800.8725586  -999.250000
 2554.0716000 46.566238403 0.2540999949 2.1443998814 3678.4636230  -999.250000
 2554.2240000 51.719375610 0.2540999949 2.1443998814 3610.5625000  -999.250000
 2554.3764000 57.755638123 0.2540999949 2.1443998814 3610.5625000  -999.250000
 2554.5288000 59.901981354 0.2540999949 2.1443998814 3610.5625000  -999.250000
 2554.6812000 60.132221222 0.2540999949 2.1443998814 3632.7490234  -999.250000
 2554.8336000 60.132221222 0.2540999949 2.1443998814 3731.3874512  -999.250000
 2554.9860000 60.132221222 0.2540999949 2.1443998814 3847.5998535  -999.250000
 2555.1384000 59.799850464 0.2540999949 2.1443998814 3847.5998535  -999.250000
 2555.2908000 59.117019653 0.2540999949 2.1443998814 3847.5998535  -999.250000
 2555.4432000 58.523323059 0.2540999949 2.1443998814 3826.3503418  -999.250000
 2555.5956000 57.930294037 0.2540999949 2.1443998814 3727.9077148  -999.250000
 2555.7480000 57.337200165 0.2540999949 2.1443998814 3558.7851563  -999.250000
 2555.9004000 56.744098663 0.2540999949 2.1443998814 3496.5397949  -999.250000
 2556.0528000 56.151000977 0.2540999949 2.1443998814 3494.5070801  -999.250000
 2556.2052000 55.557899475 0.2540999949 2.1443998814 3494.5070801  -999.250000
 2556.3576000 54.964801788 0.2540999949 2.1443998814 3494.8535156  -999.250000
 2556.5100000 54.371688843 0.2540999949 2.1443998814 3497.3662109  -999.250000
 2556.6624000 53.778633118 0.2540999949 2.1443998814 3497.5166016  -999.250000
 2556.8148000 53.185573578 0.2540999949 2.1443998814 3524.0600586  -999.250000
 2556.9672000 52.592399597 0.2540999949 2.1443998814 3545.0417480  -999.250000
 2557.1196000 51.999374390 0.2540999949 2.1443998814 3551.0500488  -999.250000
 2557.2720000 51.406253815 0.2540999949 2.1443998814 3567.6997070  -999.250000
 2557.4244000 50.813076019 0.2540999949 2.1443998814 3567.8205566  -999.250000
 2557.5768000 50.219902039 0.2540999949 2.1443998814 3567.8205566  -999.250000
 2557.7292000 49.626522064 0.2540999949 2.1443998814 3565.9528809  -999.250000
 2557.8816000 49.038860321 0.2540999949 2.1443998814 3555.4680176  -999.250000
 2558.0340000 48.341453552 0.2540999949 2.1443998814 3546.9851074  -999.250000
 2558.1864000 47.519226074 0.2540999949 2.1443998814 3539.4909668  -999.250000
 2558.3388000 46.625568390 0.2540999949 2.1443998814 3528.2060547  -999.250000
 2558.4912000 45.759841919 0.2540999949 2.1443998814 3509.3867188  -999.250000
 2558.6436000 45.130012512 0.2540999949 2.1443998814 3480.1364746  -999.250000
 2558.7960000 44.940799713 0.2540999949 2.1443998814 3432.4460449  -999.250000
 2558.9484000 44.913013458 0.2540999949 2.1443998814 3405.7995605  -999.250000
 2559.1008000 44.913013458 0.2540999949 2.1443998814 3390.8496094  -999.250000
 2559.2532000 44.913013458 0.2540999949 2.1443998814 3380.6220703  -999.250000
 2559.4056000 45.218982697 0.2540999949 2.1443998814 3372.5410156  -999.250000
 2559.5580000 45.652397156 0.2540999949 2.1443998814 3372.5305176  -999.250000
 2559.7104000 45.940341949 0.2540999949 2.1443998814 3384.9555664  -999.250000
 2559.8628000 46.208820343 0.2540999949 2.1443998814 3400.9951172  -999.250000
 2560.0152000 46.977291107 0.2540999949 2.1443998814 3411.2414551  -999.250000
 2560.1676000 47.085441589 0.2540999949 2.1443998814 3453.8364258  -999.250000
 2560.3200000 47.085441589 0.2540999949 2.1443998814 3454.6889648  -999.250000
 2560.4724000 47.074741364 0.2540999949 2.1443998814 3454.6889648  -999.250000
 2560.6248000 46.520523071 0.2540999949 2.1443998814 3453.6577148  -999.250000
 2560.7772000 40.713699341 0.2540999949 2.1443998814 3449.2346191  -999.250000
 2560.9296000 39.159564972 0.2540999949 2.1443998814 3449.2346191  -999.250000
 2561.0820000 39.159564972 0.2540999949 2.1443998814 3449.2346191  -999.250000
 2561.2344000 39.159564972 0.2540999949 2.1443998814 3473.3767090  -999.250000
 2561.3868000 39.159564972 0.2540999949 2.1443998814 3553.4697266  -999.250000
 2561.5392000 39.159564972 0.2540999949 2.1443998814 3624.2377930  -999.250000
 2561.6916000 36.845371246 0.2540999949 2.1443998814 3682.8469238  -999.250000
 2561.8440000 31.318019867 0.2540999949 2.1443998814 3687.9233398  -999.250000
 2561.9964000 29.596197128 0.2540999949 2.1443998814 3688.3315430  -999.250000
 2562.1488000 29.596055984 0.2540999949 2.1443998814 3688.6101074  -999.250000
 2562.3012000 29.596055984 0.2540999949 2.1443998814 3688.6101074  -999.250000
 2562.4536000 30.605209351 0.2540999949 2.1443998814 3688.0224609  -999.250000
 2562.6060000 35.105255127 0.2540999949 2.1443998814 3682.8791504  -999.250000
 2562.7584000 38.879661560 0.2540999949 2.1443998814 3650.3366699  -999.250000
 2562.9108000 42.871360779 0.2540999949 2.1443998814 3545.4609375  -999.250000
 2563.0632000 49.947761536 0.2540999949 2.1443998814 3455.5170898  -999.250000
 2563.2156000 60.712772369 0.2540999949 2.1443998814 3318.5676270  -999.250000
 2563.3680000 71.768119812 0.2540999949 2.1443998814 3193.6791992  -999.250000
 2563.5204000 78.215850830 0.2540999949 2.1443998814 3093.8588867  -999.250000
 2563.6728000 78.414726257 0.2540999949 2.1443998814 3024.4150391  -999.250000
 2563.8252000 78.414726257 0.2540999949 2.1443998814 3024.4150391  -999.250000
 2563.9776000 77.888870239 0.2540999949 2.1443998814 3024.4150391  -999.250000
 2564.1300000 72.420677185 0.2540999949 2.1443998814 3028.2626953  -999.250000
 2564.2824000 66.006423950 0.2540999949 2.1443998814 3068.2155762  -999.250000
 2564.4348000 59.973743439 0.2540999949 2.1443998814 3332.0776367  -999.250000
 2564.5872000 56.758243561 0.2540999949 2.1443998814 3745.4694824  -999.250000
 2564.7396000 55.317695618 0.2540999949 2.1443998814 3948.9660645  -999.250000
 2564.8920000 54.230247498 0.2540999949 2.1443998814 3989.3801270  -999.250000
 2565.0444000 53.362812042 0.2540999949 2.1443998814 3989.3801270  -999.250000
 2565.1968000 52.902320862 0.2540999949 2.1443998814 3989.3801270  -999.250000
 2565.3492000 52.552589417 0.2540999949 2.1443998814 4008.8933105  -999.250000
 2565.5016000 52.159301758 0.2540999949 2.1443998814 4014.4108887  -999.250000
 2565.6540000 51.704647064 0.2540999949 2.1443998814 4014.4108887  -999.250000
 2565.8064000 51.694103241 0.2540999949 2.1443998814 4014.4108887  -999.250000
 2565.9588000 51.694103241 0.2540999949 2.1443998814 4014.4108887  -999.250000
 2566.1112000 51.695335388 0.2540999949 2.1443998814 4014.4108887  -999.250000
 2566.2636000 51.716392517 0.2540999949 2.1443998814 4020.1943359  -999.250000
