# LAS format log file from PETREL
# Project units are specified as depth units
#==================================================================
~Version information
VERS.   2.0:
WRAP.   NO:
#==================================================================
~Well
STRT .m      172.51680000 :
STOP .m      3749.8020000 :
STEP .m     0.15240000 :
NULL .        -999.250000 :
COMP.           : COMPANY
WELL.  15/9-F-14   : WELL
FLD.            : FIELD
LOC.            : LOCATION
SRVC.           : SERVICE COMPANY
DATE.  2019-09-28 20:20:01   : Log Export Date {yyyy-MM-dd HH:mm:ss}
PROV.           : PROVINCE
UWI.   5351   : UNIQUE WELL ID
API.            : API NUMBER
#==================================================================
~Curve
DEPT .m                   : DEPTH
GR .gAPI                  : GR
NPHI .m3/m3               : NPHI
RHOB .g/cm3               : RHOB
Vp .m/s                   : Vp
Vs .m/s                   : Vs
~Parameter
#==================================================================
~Ascii
# ...
 1602.6384000 88.755668640 0.2540999949 2.1443998814 2400.9299316  -999.250000
 1602.7908000 91.861404419 0.2540999949 2.1443998814 2394.2744141  -999.250000
 1602.9432000 95.046829224 0.2540999949 2.1443998814 2377.6132813  -999.250000
 1603.0956000 99.622734070 0.2540999949 2.1443998814 2336.8884277  -999.250000
 1603.2480000 106.01873016 0.2540999949 2.1443998814 2325.9223633  -999.250000
 1603.4004000 106.31221771 0.2540999949 2.1443998814 2325.9223633  -999.250000
 1603.5528000 106.60570526 0.2540999949 2.1443998814 2326.1176758  -999.250000
 1603.7052000 104.55934143 0.2540999949 2.1443998814 2363.8212891  -999.250000
 1603.8576000 97.660095215 0.2540999949 2.1443998814 2395.8686523  -999.250000
 1604.0100000 93.941978455 0.2540999949 2.1443998814 2421.6035156  -999.250000
 1604.1624000 93.091529846 0.2540999949 2.1443998814 2421.9277344  -999.250000
 1604.3148000 92.781761169 0.2540999949 2.1443998814 2421.9277344  -999.250000
 1604.4672000 92.722160339 0.2540999949 2.1443998814 2388.9379883  -999.250000
 1604.6196000 92.056243896 0.2540999949 2.1443998814 2354.3427734  -999.250000
 1604.7720000 90.460662842 0.2540999949 2.1443998814 2324.0476074  -999.250000
 1604.9244000 90.460662842 0.2540999949 2.1443998814 2259.3872070  -999.250000
 1605.0768000 90.638580322 0.2540999949 2.1443998814 2243.0417480  -999.250000
 1605.2292000 93.607368469 0.2540999949 2.1443998814 2243.0417480  -999.250000
 1605.3816000 98.884384155 0.2540999949 2.1443998814 2250.7729492  -999.250000
 1605.5340000 102.26749420 0.2540999949 2.1443998814 2266.0434570  -999.250000
 1605.6864000 102.26749420 0.2540999949 2.1443998814 2278.2934570  -999.250000
 1605.8388000 102.26749420 0.2540999949 2.1443998814 2286.3395996  -999.250000
 1605.9912000 102.26749420 0.2540999949 2.1443998814 2288.7761230  -999.250000
 1606.1436000 102.26749420 0.2540999949 2.1443998814 2308.5341797  -999.250000
 1606.2960000 102.25814819 0.2540999949 2.1443998814 2323.9931641  -999.250000
 1606.4484000 102.25751495 0.2540999949 2.1443998814 2324.4692383  -999.250000
 1606.6008000 100.74372864 0.2540999949 2.1443998814 2345.8264160  -999.250000
 1606.7532000 97.726310730 0.2540999949 2.1443998814 2472.0791016  -999.250000
 1606.9056000 94.625518799 0.2540999949 2.1443998814 2477.0981445  -999.250000
 1607.0580000 93.017181396 0.2540999949 2.1443998814 2477.0981445  -999.250000
 1607.2104000 92.727577209 0.2540999949 2.1443998814 2477.0981445  -999.250000
 1607.3628000 92.629371643 0.2540999949 2.1443998814 2415.8740234  -999.250000
 1607.5152000 92.108093262 0.2540999949 2.1443998814 2409.0917969  -999.250000
 1607.6676000 90.318115234 0.2540999949 2.1443998814 2402.2304688  -999.250000
 1607.8200000 87.668220520 0.2540999949 2.1443998814 2401.7058105  -999.250000
 1607.9724000 85.745971680 0.2540999949 2.1443998814 2401.7058105  -999.250000
 1608.1248000 85.270568848 0.2540999949 2.1443998814 2414.4318848  -999.250000
 1608.2772000 85.270568848 0.2540999949 2.1443998814 2434.6723633  -999.250000
 1608.4296000 85.296516418 0.2540999949 2.1443998814 2438.2165527  -999.250000
 1608.5820000 85.884841919 0.2540999949 2.1443998814 2438.2165527  -999.250000
 1608.7344000 87.144233704 0.2540999949 2.1443998814 2434.6950684  -999.250000
 1608.8868000 88.397659302 0.2540999949 2.1443998814 2420.9499512  -999.250000
 1609.0392000 89.365188599 0.2540999949 2.1443998814 2414.7844238  -999.250000
 1609.1916000 89.530044556 0.2540999949 2.1443998814 2414.7844238  -999.250000
 1609.3440000 89.530456543 0.2540999949 2.1443998814 2421.2004395  -999.250000
 1609.4964000 89.530456543 0.2540999949 2.1443998814 2447.8632813  -999.250000
 1609.6488000 83.399879456 0.2540999949 2.1443998814 2447.8632813  -999.250000
 1609.8012000 75.629280090 0.2540999949 2.1443998814 2447.5471191  -999.250000
 1609.9536000 71.113288879 0.2540999949 2.1443998814 2442.0500488  -999.250000
 1610.1060000 70.708847046 0.2540999949 2.1443998814 2441.9572754  -999.250000
 1610.2584000 70.708847046 0.2540999949 2.1443998814 2426.8251953  -999.250000
 1610.4108000 71.580474854 0.2540999949 2.1443998814 2424.8618164  -999.250000
 1610.5632000 73.728820801 0.2540999949 2.1443998814 2424.8566895  -999.250000
 1610.7156000 75.974472046 0.2540999949 2.1443998814 2424.8566895  -999.250000
 1610.8680000 78.348411560 0.2540999949 2.1443998814 2403.6049805  -999.250000
 1611.0204000 80.325431824 0.2540999949 2.1443998814 2392.0490723  -999.250000
 1611.1728000 81.734756470 0.2540999949 2.1443998814 2387.0373535  -999.250000
 1611.3252000 82.570426941 0.2540999949 2.1443998814 2386.5820313  -999.250000
 1611.4776000 82.707283020 0.2540999949 2.1443998814 2385.3618164  -999.250000
 1611.6300000 82.707283020 0.2540999949 2.1443998814 2384.0961914  -999.250000
 1611.7824000 82.663139343 0.2540999949 2.1443998814 2385.3349609  -999.250000
 1611.9348000 81.662178040 0.2540999949 2.1443998814 2386.6909180  -999.250000
 1612.0872000 80.821212769 0.2540999949 2.1443998814 2396.9826660  -999.250000
 1612.2396000 80.043548584 0.2540999949 2.1443998814 2411.6330566  -999.250000
 1612.3920000 80.043548584 0.2540999949 2.1443998814 2411.6330566  -999.250000
 1612.5444000 80.043548584 0.2540999949 2.1443998814 2405.2370605  -999.250000
 1612.6968000 81.448432922 0.2540999949 2.1443998814 2375.9299316  -999.250000
 1612.8492000 81.509803772 0.2540999949 2.1443998814 2371.8471680  -999.250000
 1613.0016000 81.509803772 0.2540999949 2.1443998814 2371.5610352  -999.250000
 1613.1540000 80.614112854 0.2540999949 2.1443998814 2371.9873047  -999.250000
 1613.3064000 76.592536926 0.2540999949 2.1443998814 2370.2258301  -999.250000
 1613.4588000 75.748420715 0.2540999949 2.1443998814 2365.9548340  -999.250000
 1613.6112000 75.748420715 0.2540999949 2.1443998814 2362.4277344  -999.250000
 1613.7636000 78.030891418 0.2540999949 2.1443998814 2344.8137207  -999.250000
 1613.9160000 79.736740112 0.2540999949 2.1443998814 2344.0971680  -999.250000
 1614.0684000 79.736740112 0.2540999949 2.1443998814 2344.0905762  -999.250000
 1614.2208000 79.309494019 0.2540999949 2.1443998814 2344.0905762  -999.250000
 1614.3732000 78.559730530 0.2540999949 2.1443998814 2368.0224609  -999.250000
 1614.5256000 78.559730530 0.2540999949 2.1443998814 2373.0781250  -999.250000
 1614.6780000 78.796775818 0.2540999949 2.1443998814 2373.0781250  -999.250000
 1614.8304000 79.909133911 0.2540999949 2.1443998814 2371.9321289  -999.250000
 1614.9828000 79.909133911 0.2540999949 2.1443998814 2361.8615723  -999.250000
 1615.1352000 79.808555603 0.2540999949 2.1443998814 2356.4768066  -999.250000
 1615.2876000 76.204093933 0.2540999949 2.1443998814 2356.4768066  -999.250000
 1615.4400000 72.799102783 0.2540999949 2.1443998814 2375.6960449  -999.250000
 1615.5924000 71.168350220 0.2540999949 2.1443998814 2447.8073730  -999.250000
 1615.7448000 70.675506592 0.2540999949 2.1443998814 2473.5693359  -999.250000
 1615.8972000 70.568588257 0.2540999949 2.1443998814 2473.5693359  -999.250000
 1616.0496000 70.567115784 0.2540999949 2.1443998814 2465.1435547  -999.250000
 1616.2020000 70.567115784 0.2540999949 2.1443998814 2359.2592773  -999.250000
 1616.3544000 70.866806030 0.2540999949 2.1443998814 2290.5180664  -999.250000
 1616.5068000 71.529518127 0.2540999949 2.1443998814 2290.5180664  -999.250000
 1616.6592000 73.224494934 0.2540999949 2.1443998814 2290.5952148  -999.250000
 1616.8116000 75.677871704 0.2540999949 2.1443998814 2322.5395508  -999.250000
 1616.9640000 76.468925476 0.2540999949 2.1443998814 2329.7541504  -999.250000
 1617.1164000 76.624412537 0.2540999949 2.1443998814 2394.8520508  -999.250000
 1617.2688000 76.950248718 0.2540999949 2.1443998814 2402.1396484  -999.250000
 1617.4212000 77.179962158 0.2540999949 2.1443998814 2402.2641602  -999.250000
 1617.5736000 77.396301270 0.2540999949 2.1443998814 2402.2641602  -999.250000
 1617.7260000 79.018325806 0.2540999949 2.1443998814 2352.9199219  -999.250000
 1617.8784000 80.410232544 0.2540999949 2.1443998814 2339.5434570  -999.250000
 1618.0308000 80.410232544 0.2540999949 2.1443998814 2339.5434570  -999.250000
