# LAS format log file from PETREL
# Project units are specified as depth units
#==================================================================
~Version information
VERS.   2.0:
WRAP.   NO:
#==================================================================
~Well
STRT .m      172.51680000 :
STOP .m      3749.8020000 :
STEP .m     0.15240000 :
NULL .        -999.250000 :
COMP.           : COMPANY
WELL.  15/9-F-14   : WELL
FLD.            : FIELD
LOC.            : LOCATION
SRVC.           : SERVICE COMPANY
DATE.  2019-09-28 20:20:01   : Log Export Date {yyyy-MM-dd HH:mm:ss}
PROV.           : PROVINCE
UWI.   5351   : UNIQUE WELL ID
API.            : API NUMBER
#==================================================================
~Curve
DEPT .m                   : DEPTH
GR .gAPI                  : GR
NPHI .m3/m3               : NPHI
RHOB .g/cm3               : RHOB
Vp .m/s                   : Vp
Vs .m/s                   : Vs
~Parameter
#==================================================================
~Ascii
# ...
 3017.2152000 30.523874283 0.2267999947 2.1180999279 3649.6843262 2108.3886719
 3017.3676000 30.412376404 0.2205999941 2.1117999554 3649.3471680 2100.3515625
 3017.5200000 30.412544250 0.2262999862 2.1124000549 3644.9401855 2095.2116699
 3017.6724000 30.616758347 0.2319999933 2.1171000004 3634.9377441 2091.3093262
 3017.8248000 31.756191254 0.2240999937 2.1331999302 3632.8005371 2066.3784180
 3017.9772000 34.845489502 0.2125999928 2.1784999371 3632.7983398 2039.5762939
 3018.1296000 39.089649200 0.2199999988 2.2528998852 3632.7983398 2032.9355469
 3018.2820000 41.890930176 0.2049999982 2.3427000046 3633.2158203 2043.0633545
 3018.4344000 46.370063782 0.1923000067 2.4100999832 3637.7082520 2071.2578125
 3018.5868000 51.216270447 0.1906999946 2.4351999760 3665.4240723 2107.1513672
 3018.7392000 54.346641541 0.1933999956 2.4145998955 3680.7502441 2152.2634277
 3018.8916000 55.472595215 0.2055000067 2.3933999538 3759.3613281 2204.3833008
 3019.0440000 55.582336426 0.2019000053 2.3991999626 3851.2434082 2250.4067383
 3019.1964000 57.146217346 0.1953999996 2.4451999664 3881.5056152 2269.5693359
 3019.3488000 57.674766541 0.2082999945 2.4628000259 3895.0603027 2271.6879883
 3019.5012000 58.047069550 0.1920000017 2.4581000805 3939.2331543 2252.9108887
 3019.6536000 59.228130341 0.2017000020 2.4172999859 3957.7102051 2181.9663086
 3019.8060000 60.572238922 0.2022999972 2.4073998928 3968.7365723 2102.0517578
 3019.9584000 64.718315125 0.2079000026 2.4072000980 3990.2775879 2087.0439453
 3020.1108000 67.938079834 0.1981000006 2.4158999920 3995.2663574 2075.6245117
 3020.2632000 68.835166931 0.2018000036 2.4481000900 3998.0759277 2059.0068359
 3020.4156000 68.835166931 0.2090000063 2.4626998901 4031.8593750 2048.6625977
 3020.5680000 68.835166931 0.2164999992 2.4737000465 4080.8647461 2069.5737305
 3020.7204000 68.044525146 0.2117000073 2.4742999077 4080.8647461 2095.4086914
 3020.8728000 66.540733337 0.2092999965 2.4942998886 4080.8647461 2107.6003418
 3021.0252000 64.407028198 0.2009000033 2.4567999840 4034.0180664 2108.4052734
 3021.1776000 59.784664154 0.2019000053 2.3796000481 3957.4655762 2102.4863281
 3021.3300000 52.157756805 0.2120999992 2.2648999691 3920.5952148 2100.2871094
 3021.4824000 45.603870392 0.2078000009 2.2009000778 3913.8232422 2097.8884277
 3021.6348000 41.759803772 0.2050999999 2.1528000832 3839.4790039 2093.8916016
 3021.7872000 39.724765778 0.2231000066 2.1322000027 3810.3491211 2088.5507813
 3021.9396000 38.099006653 0.2164999992 2.1184999943 3794.5024414 2082.5910645
 3022.0920000 36.454887390 0.2089000046 2.1243999004 3771.8784180 2070.1425781
 3022.2444000 34.504394531 0.2200500071 2.1275999546 3771.8784180 2050.0656738
 3022.3968000 33.654216766 0.2138250023 2.1393001080 3790.0656738 2058.3586426
 3022.5492000 33.654216766 0.2075999975 2.1468000412 3818.6496582 2081.4633789
 3022.7016000 33.654216766 0.1985999942 2.1645998955 3839.7307129 2082.7358398
 3022.8540000 34.480316162 0.2072000057 2.1747999191 3851.6838379 2079.3605957
 3023.0064000 36.718753815 0.1978999972 2.1840999126 3860.2202148 2079.4265137
 3023.1588000 39.617721558 0.2003999949 2.2053000927 3890.7268066 2081.3957520
 3023.3112000 41.872100830 0.2141000032 2.2479999065 3938.8969727 2089.1950684
 3023.4636000 45.076187134 0.1992000043 2.3053998947 4003.4555664 2142.1416016
 3023.6160000 49.875782013 0.1950999945 2.3659999371 4129.0566406 2206.8439941
 3023.7684000 55.383815765 0.1853999943 2.4061999321 4141.3876953 2244.6372070
 3023.9208000 58.883953094 0.1782999933 2.4340999126 4153.7802734 2245.5075684
 3024.0732000 59.374401093 0.1828999966 2.4711000919 4177.4965820 2173.9726563
 3024.2256000 59.378189087 0.1806000024 2.4916000366 4240.8330078 2021.7935791
 3024.3780000 59.378189087 0.1960999966 2.4809999466 4495.2412109 2035.5347900
 3024.5304000 58.641723633 0.1887000054 2.3931000233 4651.1870117 2067.2443848
 3024.6828000 53.476928711 0.2012999952 2.3018999100 4750.0087891 2080.8591309
 3024.8352000 47.788734436 0.2061000019 2.2232999802 4784.6381836 2080.8786621
 3024.9876000 42.042182922 0.1985999942 2.1795001030 4784.6381836 2090.0375977
 3025.1400000 37.651889801 0.2233999968 2.1568999290 4784.6381836 2095.1181641
 3025.2924000 34.423217773 0.2325000018 2.1475000381 4653.6699219 2083.5593262
 3025.4448000 32.135566711 0.2313999981 2.1500000954 4409.6005859 2043.2360840
 3025.5972000 32.108085632 0.2187999934 2.1533999443 4143.0415039 2026.5437012
 3025.7496000 31.731586456 0.2169000059 2.1607999802 3789.5886230 2020.5655518
 3025.9020000 31.293275833 0.2187999934 2.1565001011 3703.0214844 2020.5567627
 3026.0544000 31.108068466 0.2172999978 2.1570999622 3676.8876953 2021.3587646
 3026.2068000 31.021499634 0.2219000012 2.1517999172 3648.7089844 2021.5241699
 3026.3592000 31.020994186 0.2216999978 2.1547999382 3613.9243164 2018.4714355
 3026.5116000 31.020994186 0.2212000042 2.1651000977 3613.9243164 2010.4752197
 3026.6640000 31.248769760 0.2293999940 2.2500000000 3613.9243164 2006.1739502
 3026.8164000 33.066535950 0.2138999999 2.3238999844 3668.0190430 2006.8791504
 3026.9688000 36.974975586 0.1958000064 2.3994998932 3753.7534180 2023.7482910
 3027.1212000 42.137329102 0.2215999961 2.3582999706 3768.7041016 2054.3713379
 3027.2736000 46.876865387 0.2107000053 2.3582999706 3772.3103027 2082.1733398
 3027.4260000 50.723842621 0.2134000063 2.3875000477 3772.7504883 2107.7819824
 3027.5784000 54.210544586 0.1942999959 2.4312996864 3825.4748535 2132.5939941
 3027.7308000 59.820011139 0.2189999968 2.4695999622 3921.4987793 2155.4250488
 3027.8832000 64.363220215 0.1948000044 2.4899001122 3921.4987793 2161.9128418
 3028.0356000 65.984489441 0.2070000023 2.4774999619 3928.1325684 2155.6118164
 3028.1880000 66.352470398 0.2247000039 2.4693999290 3929.2475586 2151.4726563
 3028.3404000 66.557685852 0.2287999988 2.4640998840 3929.2475586 2159.9724121
 3028.4928000 67.711204529 0.2451000065 2.5016999245 3929.4870605 2171.8762207
 3028.6452000 70.165054321 0.2488999963 2.5160000324 3939.2868652 2165.7438965
 3028.7976000 73.446273804 0.2377000004 2.5236001015 3970.7680664 2153.5893555
 3028.9500000 76.798965454 0.2416999936 2.5336000919 3992.3420410 2150.2087402
 3029.1024000 80.491539001 0.2592999935 2.5406000614 4007.6054688 2173.1164551
 3029.2548000 84.664352417 0.2694000006 2.5481998920 4031.5214844 2207.1628418
 3029.4072000 88.656188965 0.2736999989 2.5494999886 4098.4150391 2221.9970703
 3029.5596000 90.239204407 0.2960000038 2.5406999588 4102.4799805 2223.3583984
 3029.7120000 90.239204407 0.2915999889 2.5508999825 4102.4799805 2216.0239258
 3029.8644000 90.239204407 0.2867999971 2.5747001171 4098.2988281 2196.8601074
 3030.0168000 85.393707275 0.2572999895 2.5745000839 4036.0300293 2202.3554688
 3030.1692000 76.195236206 0.2435999960 2.5294001102 3905.9152832 2223.8801270
 3030.3216000 66.836669922 0.2307000011 2.4031000137 3885.3305664 2229.0578613
 3030.4740000 57.663158417 0.2265000045 2.2959001064 3872.9812012 2197.1955566
 3030.6264000 46.966251373 0.2311999947 2.2032999992 3847.7709961 2168.7324219
 3030.7788000 37.969173431 0.2247000039 2.1684999466 3844.0559082 2170.5957031
 3030.9312000 30.937559128 0.2172999978 2.1531999111 3840.1320801 2176.2475586
 3031.0836000 25.582847595 0.2111999989 2.1570000648 3835.5949707 2181.3442383
 3031.2360000 21.726175308 0.2034000009 2.1719999313 3820.0693359 2184.0620117
 3031.3884000 20.244682312 0.1762000024 2.1925001144 3754.4809570 2207.5837402
 3031.5408000 18.991561890 0.1832000017 2.2118999958 3705.9733887 2222.3374023
 3031.6932000 18.126390457 0.1957000047 2.2262001038 3702.7131348 2224.9196777
 3031.8456000 17.894359589 0.1811999977 2.2374999523 3702.7131348 2226.5422363
 3031.9980000 17.894359589 0.1800000072 2.2511999607 3718.2507324 2276.9077148
 3032.1504000 17.894359589 0.1867000014 2.2693998814 3939.1613770 2308.0930176
 3032.3028000 17.957889557 0.1835000068 2.2829000950 3941.8518066 2312.0500488
 3032.4552000 18.312391281 0.1842000037 2.2892000675 3941.8518066 2314.0019531
 3032.6076000 18.794082642 0.1932000071 2.2953000069 3933.5119629 2329.5139160
