# LAS format log file from PETREL
# Project units are specified as depth units
#==================================================================
~Version information
VERS.   2.0:
WRAP.   NO:
#==================================================================
~Well
STRT .m      172.51680000 :
STOP .m      3749.8020000 :
STEP .m     0.15240000 :
NULL .        -999.250000 :
COMP.           : COMPANY
WELL.  15/9-F-14   : WELL
FLD.            : FIELD
LOC.            : LOCATION
SRVC.           : SERVICE COMPANY
DATE.  2019-09-28 20:20:01   : Log Export Date {yyyy-MM-dd HH:mm:ss}
PROV.           : PROVINCE
UWI.   5351   : UNIQUE WELL ID
API.            : API NUMBER
#==================================================================
~Curve
DEPT .m                   : DEPTH
GR .gAPI                  : GR
NPHI .m3/m3               : NPHI
RHOB .g/cm3               : RHOB
Vp .m/s                   : Vp
Vs .m/s                   : Vs
~Parameter
#==================================================================
~Ascii
# ...
 2068.9824000 67.954467773 0.2540999949 2.1443998814 2259.7592773  -999.250000
 2069.1348000 72.692619324 0.2540999949 2.1443998814 2259.7592773  -999.250000
 2069.2872000 77.871437073 0.2540999949 2.1443998814 2263.1931152  -999.250000
 2069.4396000 78.063522339 0.2540999949 2.1443998814 2284.8830566  -999.250000
 2069.5920000 78.063522339 0.2540999949 2.1443998814 2284.8830566  -999.250000
 2069.7444000 74.890953064 0.2540999949 2.1443998814 2284.8830566  -999.250000
 2069.8968000 67.578987122 0.2540999949 2.1443998814 2277.0305176  -999.250000
 2070.0492000 63.300941467 0.2540999949 2.1443998814 2263.1684570  -999.250000
 2070.2016000 61.994529724 0.2540999949 2.1443998814 2260.7082520  -999.250000
 2070.3540000 61.994529724 0.2540999949 2.1443998814 2260.7082520  -999.250000
 2070.5064000 61.994529724 0.2540999949 2.1443998814 2259.8161621  -999.250000
 2070.6588000 62.516567230 0.2540999949 2.1443998814 2257.3876953  -999.250000
 2070.8112000 65.797378540 0.2540999949 2.1443998814 2257.1791992  -999.250000
 2070.9636000 66.441635132 0.2540999949 2.1443998814 2248.8623047  -999.250000
 2071.1160000 66.502212524 0.2540999949 2.1443998814 2240.3798828  -999.250000
 2071.2684000 67.053718567 0.2540999949 2.1443998814 2240.1730957  -999.250000
 2071.4208000 67.894073486 0.2540999949 2.1443998814 2239.5417480  -999.250000
 2071.5732000 67.918533325 0.2540999949 2.1443998814 2239.3132324  -999.250000
 2071.7256000 68.551933289 0.2540999949 2.1443998814 2239.6486816  -999.250000
 2071.8780000 70.577430725 0.2540999949 2.1443998814 2241.1772461  -999.250000
 2072.0304000 72.125877380 0.2540999949 2.1443998814 2242.5114746  -999.250000
 2072.1828000 72.447738647 0.2540999949 2.1443998814 2242.8842773  -999.250000
 2072.3352000 72.659591675 0.2540999949 2.1443998814 2246.9299316  -999.250000
 2072.4876000 73.022102356 0.2540999949 2.1443998814 2249.9609375  -999.250000
 2072.6400000 73.725997925 0.2540999949 2.1443998814 2252.4831543  -999.250000
 2072.7924000 74.642791748 0.2540999949 2.1443998814 2255.9233398  -999.250000
 2072.9448000 75.676673889 0.2540999949 2.1443998814 2256.6748047  -999.250000
 2073.0972000 79.139839172 0.2540999949 2.1443998814 2257.3928223  -999.250000
 2073.2496000 84.239730835 0.2540999949 2.1443998814 2261.0563965  -999.250000
 2073.4020000 89.786720276 0.2540999949 2.1443998814 2264.6757813  -999.250000
 2073.5544000 90.112243652 0.2540999949 2.1443998814 2265.5158691  -999.250000
 2073.7068000 90.112243652 0.2540999949 2.1443998814 2267.7084961  -999.250000
 2073.8592000 90.082290649 0.2540999949 2.1443998814 2268.8742676  -999.250000
 2074.0116000 89.143920898 0.2540999949 2.1443998814 2303.2580566  -999.250000
 2074.1640000 84.441635132 0.2540999949 2.1443998814 2336.1010742  -999.250000
 2074.3164000 80.267837524 0.2540999949 2.1443998814 2341.2739258  -999.250000
 2074.4688000 80.267837524 0.2540999949 2.1443998814 2341.2739258  -999.250000
 2074.6212000 80.267837524 0.2540999949 2.1443998814 2340.9240723  -999.250000
 2074.7736000 80.678100586 0.2540999949 2.1443998814 2336.8762207  -999.250000
 2074.9260000 82.574302673 0.2540999949 2.1443998814 2326.0136719  -999.250000
 2075.0784000 83.010734558 0.2540999949 2.1443998814 2313.0517578  -999.250000
 2075.2308000 83.010734558 0.2540999949 2.1443998814 2291.6323242  -999.250000
 2075.3832000 82.715660095 0.2540999949 2.1443998814 2290.4555664  -999.250000
 2075.5356000 81.816673279 0.2540999949 2.1443998814 2290.4555664  -999.250000
 2075.6880000 81.717979431 0.2540999949 2.1443998814 2293.9357910  -999.250000
 2075.8404000 81.717979431 0.2540999949 2.1443998814 2311.5107422  -999.250000
 2075.9928000 81.717979431 0.2540999949 2.1443998814 2340.8300781  -999.250000
 2076.1452000 86.616378784 0.2540999949 2.1443998814 2362.6770020  -999.250000
 2076.2976000 91.173080444 0.2540999949 2.1443998814 2372.8742676  -999.250000
 2076.4500000 91.793090820 0.2540999949 2.1443998814 2381.6691895  -999.250000
 2076.6024000 91.793090820 0.2540999949 2.1443998814 2393.6193848  -999.250000
 2076.7548000 90.208213806 0.2540999949 2.1443998814 2401.0798340  -999.250000
 2076.9072000 83.963577271 0.2540999949 2.1443998814 2405.5478516  -999.250000
 2077.0596000 82.438125610 0.2540999949 2.1443998814 2406.4111328  -999.250000
 2077.2120000 82.220130920 0.2540999949 2.1443998814 2403.1333008  -999.250000
 2077.3644000 81.377082825 0.2540999949 2.1443998814 2396.9074707  -999.250000
 2077.5168000 81.347099304 0.2540999949 2.1443998814 2410.4018555  -999.250000
 2077.6692000 78.235160828 0.2540999949 2.1443998814 2426.7783203  -999.250000
 2077.8216000 72.775680542 0.2540999949 2.1443998814 2459.5834961  -999.250000
 2077.9740000 71.258201599 0.2540999949 2.1443998814 2715.8737793  -999.250000
 2078.1264000 71.258201599 0.2540999949 2.1443998814 2779.7153320  -999.250000
 2078.2788000 71.415191650 0.2540999949 2.1443998814 2783.3479004  -999.250000
 2078.4312000 74.387260437 0.2540999949 2.1443998814 2783.3479004  -999.250000
 2078.5836000 81.277526855 0.2540999949 2.1443998814 2694.2678223  -999.250000
 2078.7360000 92.715797424 0.2540999949 2.1443998814 2463.6694336  -999.250000
 2078.8884000 95.682777405 0.2540999949 2.1443998814 2463.6694336  -999.250000
 2079.0408000 95.861091614 0.2540999949 2.1443998814 2463.6699219  -999.250000
 2079.1932000 95.861091614 0.2540999949 2.1443998814 2465.4638672  -999.250000
 2079.3456000 95.490394592 0.2540999949 2.1443998814 2465.5202637  -999.250000
 2079.4980000 94.845123291 0.2540999949 2.1443998814 2465.5202637  -999.250000
 2079.6504000 94.845123291 0.2540999949 2.1443998814 2463.0754395  -999.250000
 2079.8028000 94.916969299 0.2540999949 2.1443998814 2461.3339844  -999.250000
 2079.9552000 100.88105774 0.2540999949 2.1443998814 2461.3339844  -999.250000
 2080.1076000 103.07923126 0.2540999949 2.1443998814 2461.3339844  -999.250000
 2080.2600000 103.15313721 0.2540999949 2.1443998814 2461.3339844  -999.250000
 2080.4124000 103.15313721 0.2540999949 2.1443998814 2461.3339844  -999.250000
 2080.5648000 102.55808258 0.2540999949 2.1443998814 2448.7656250  -999.250000
 2080.7172000 99.980323792 0.2540999949 2.1443998814 2448.2265625  -999.250000
 2080.8696000 96.037986755 0.2540999949 2.1443998814 2448.2265625  -999.250000
 2081.0220000 91.181343079 0.2540999949 2.1443998814 2457.1613770  -999.250000
 2081.1744000 89.126113892 0.2540999949 2.1443998814 2497.8796387  -999.250000
 2081.3268000 87.070877075 0.2540999949 2.1443998814 2526.1813965  -999.250000
 2081.4792000 85.015647888 0.2540999949 2.1443998814 2526.1813965  -999.250000
 2081.6316000 89.062072754 0.2540999949 2.1443998814 2524.9233398  -999.250000
 2081.7840000 93.108489990 0.2540999949 2.1443998814 2462.9582520  -999.250000
 2081.9364000 105.18924713 0.2540999949 2.1443998814 2455.7880859  -999.250000
 2082.0888000 106.85366821 0.2540999949 2.1443998814 2455.6311035  -999.250000
 2082.2412000 106.85366821 0.2540999949 2.1443998814 2455.6311035  -999.250000
 2082.3936000 106.85366821 0.2540999949 2.1443998814 2455.6574707  -999.250000
 2082.5460000 106.85366821 0.2540999949 2.1443998814 2470.1013184  -999.250000
 2082.6984000 106.85366821 0.2540999949 2.1443998814 2495.1940918  -999.250000
 2082.8508000 106.48320007 0.2540999949 2.1443998814 2495.1940918  -999.250000
 2083.0032000 106.44380188 0.2540999949 2.1443998814 2494.9797363  -999.250000
 2083.1556000 106.43207550 0.2540999949 2.1443998814 2479.4355469  -999.250000
 2083.3080000 105.09006500 0.2540999949 2.1443998814 2479.3449707  -999.250000
 2083.4604000 102.37329102 0.2540999949 2.1443998814 2473.6088867  -999.250000
 2083.6128000 101.71919250 0.2540999949 2.1443998814 2473.1508789  -999.250000
 2083.7652000 101.71919250 0.2540999949 2.1443998814 2473.5422363  -999.250000
 2083.9176000 101.71945953 0.2540999949 2.1443998814 2472.1955566  -999.250000
 2084.0700000 102.21001434 0.2540999949 2.1443998814 2466.0158691  -999.250000
 2084.2224000 103.28563690 0.2540999949 2.1443998814 2461.9946289  -999.250000
 2084.3748000 103.38428497 0.2540999949 2.1443998814 2461.9946289  -999.250000
