# LAS format log file from PETREL
# Project units are specified as depth units
#==================================================================
~Version information
VERS.   2.0:
WRAP.   NO:
#==================================================================
~Well
STRT .m      172.51680000 :
STOP .m      3749.8020000 :
STEP .m     0.15240000 :
NULL .        -999.250000 :
COMP.           : COMPANY
WELL.  15/9-F-14   : WELL
FLD.            : FIELD
LOC.            : LOCATION
SRVC.           : SERVICE COMPANY
DATE.  2019-09-28 20:20:01   : Log Export Date {yyyy-MM-dd HH:mm:ss}
PROV.           : PROVINCE
UWI.   5351   : UNIQUE WELL ID
API.            : API NUMBER
#==================================================================
~Curve
DEPT .m                   : DEPTH
GR .gAPI                  : GR
NPHI .m3/m3               : NPHI
RHOB .g/cm3               : RHOB
Vp .m/s                   : Vp
Vs .m/s                   : Vs
~Parameter
#==================================================================
~Ascii
# ...
 1120.7496000 119.39688110 0.2540999949 2.1443998814 2318.9499512  -999.250000
 1120.9020000 115.08135223 0.2540999949 2.1443998814 2319.4897461  -999.250000
 1121.0544000 111.74550629 0.2540999949 2.1443998814 2342.7128906  -999.250000
 1121.2068000 109.21725464 0.2540999949 2.1443998814 2347.1386719  -999.250000
 1121.3592000 107.53736877 0.2540999949 2.1443998814 2365.1276855  -999.250000
 1121.5116000 107.16465759 0.2540999949 2.1443998814 2373.7258301  -999.250000
 1121.6640000 107.16465759 0.2540999949 2.1443998814 2382.1093750  -999.250000
 1121.8164000 107.44910431 0.2540999949 2.1443998814 2382.5437012  -999.250000
 1121.9688000 109.32804871 0.2540999949 2.1443998814 2382.5437012  -999.250000
 1122.1212000 113.29418182 0.2540999949 2.1443998814 2369.4284668  -999.250000
 1122.2736000 119.01490021 0.2540999949 2.1443998814 2351.9802246  -999.250000
 1122.4260000 124.30072784 0.2540999949 2.1443998814 2339.9858398  -999.250000
 1122.5784000 126.90096283 0.2540999949 2.1443998814 2338.6362305  -999.250000
 1122.7308000 127.21603394 0.2540999949 2.1443998814 2338.6362305  -999.250000
 1122.8832000 127.21603394 0.2540999949 2.1443998814 2346.6945801  -999.250000
 1123.0356000 126.62645721 0.2540999949 2.1443998814 2363.7861328  -999.250000
 1123.1880000 118.11985016 0.2540999949 2.1443998814 2378.9455566  -999.250000
 1123.3404000 111.06237793 0.2540999949 2.1443998814 2386.8596191  -999.250000
 1123.4928000 111.06237793 0.2540999949 2.1443998814 2388.0107422  -999.250000
 1123.6452000 111.10366058 0.2540999949 2.1443998814 2388.0107422  -999.250000
 1123.7976000 112.15347290 0.2540999949 2.1443998814 2386.7243652  -999.250000
 1123.9500000 112.15347290 0.2540999949 2.1443998814 2379.5727539  -999.250000
 1124.1024000 112.15103149 0.2540999949 2.1443998814 2369.3083496  -999.250000
 1124.2548000 111.04671478 0.2540999949 2.1443998814 2359.4008789  -999.250000
 1124.4072000 107.07197571 0.2540999949 2.1443998814 2354.7893066  -999.250000
 1124.5596000 107.07069397 0.2540999949 2.1443998814 2354.7893066  -999.250000
 1124.7120000 107.07069397 0.2540999949 2.1443998814 2355.7099609  -999.250000
 1124.8644000 110.70005035 0.2540999949 2.1443998814 2367.3710938  -999.250000
 1125.0168000 114.48768616 0.2540999949 2.1443998814 2382.1789551  -999.250000
 1125.1692000 117.51963043 0.2540999949 2.1443998814 2382.1789551  -999.250000
 1125.3216000 118.23490906 0.2540999949 2.1443998814 2376.3559570  -999.250000
 1125.4740000 118.25369263 0.2540999949 2.1443998814 2306.9775391  -999.250000
 1125.6264000 118.25369263 0.2540999949 2.1443998814 2279.5153809  -999.250000
 1125.7788000 113.61840057 0.2540999949 2.1443998814 2279.5153809  -999.250000
 1125.9312000 112.81829834 0.2540999949 2.1443998814 2279.5463867  -999.250000
 1126.0836000 112.81829834 0.2540999949 2.1443998814 2282.2758789  -999.250000
 1126.2360000 113.76687622 0.2540999949 2.1443998814 2296.1899414  -999.250000
 1126.3884000 114.08511353 0.2540999949 2.1443998814 2296.1899414  -999.250000
 1126.5408000 114.08688354 0.2540999949 2.1443998814 2296.1882324  -999.250000
 1126.6932000 114.08688354 0.2540999949 2.1443998814 2244.5559082  -999.250000
 1126.8456000 112.51265717 0.2540999949 2.1443998814 2240.3513184  -999.250000
 1126.9980000 109.35463715 0.2540999949 2.1443998814 2223.4101563  -999.250000
 1127.1504000 107.14712524 0.2540999949 2.1443998814 2196.5551758  -999.250000
 1127.3028000 105.74279022 0.2540999949 2.1443998814 2190.5078125  -999.250000
 1127.4552000 105.43638611 0.2540999949 2.1443998814 2190.4099121  -999.250000
 1127.6076000 105.43638611 0.2540999949 2.1443998814 2182.3210449  -999.250000
 1127.7600000 106.12459564 0.2540999949 2.1443998814 2168.5129395  -999.250000
 1127.9124000 108.57385254 0.2540999949 2.1443998814 2167.5532227  -999.250000
 1128.0648000 109.37075806 0.2540999949 2.1443998814 2167.5532227  -999.250000
 1128.2172000 109.38680267 0.2540999949 2.1443998814 2171.5471191  -999.250000
 1128.3696000 109.45868683 0.2540999949 2.1443998814 2196.0651855  -999.250000
 1128.5220000 109.75962830 0.2540999949 2.1443998814 2242.2756348  -999.250000
 1128.6744000 111.19778442 0.2540999949 2.1443998814 2261.3225098  -999.250000
 1128.8268000 111.95114899 0.2540999949 2.1443998814 2262.8181152  -999.250000
 1128.9792000 111.95114899 0.2540999949 2.1443998814 2262.8181152  -999.250000
 1129.1316000 111.57295990 0.2540999949 2.1443998814 2256.1616211  -999.250000
 1129.2840000 105.42556763 0.2540999949 2.1443998814 2251.7426758  -999.250000
 1129.4364000 100.00334930 0.2540999949 2.1443998814 2251.7426758  -999.250000
 1129.5888000 95.385704041 0.2540999949 2.1443998814 2253.8039551  -999.250000
 1129.7412000 91.870719910 0.2540999949 2.1443998814 2267.5961914  -999.250000
 1129.8936000 91.870719910 0.2540999949 2.1443998814 2276.0224609  -999.250000
 1130.0460000 91.871810913 0.2540999949 2.1443998814 2276.0224609  -999.250000
 1130.1984000 92.459953308 0.2540999949 2.1443998814 2271.3205566  -999.250000
 1130.3508000 98.509811401 0.2540999949 2.1443998814 2259.5104980  -999.250000
 1130.5032000 98.511787415 0.2540999949 2.1443998814 2257.0092773  -999.250000
 1130.6556000 98.511787415 0.2540999949 2.1443998814 2255.4172363  -999.250000
 1130.8080000 99.656097412 0.2540999949 2.1443998814 2255.3874512  -999.250000
 1130.9604000 99.681480408 0.2540999949 2.1443998814 2253.4929199  -999.250000
 1131.1128000 99.681480408 0.2540999949 2.1443998814 2237.5488281  -999.250000
 1131.2652000 105.46009827 0.2540999949 2.1443998814 2227.2543945  -999.250000
 1131.4176000 105.91056061 0.2540999949 2.1443998814 2220.4267578  -999.250000
 1131.5700000 105.91056061 0.2540999949 2.1443998814 2220.4267578  -999.250000
 1131.7224000 105.87187195 0.2540999949 2.1443998814 2220.7265625  -999.250000
 1131.8748000 105.86521912 0.2540999949 2.1443998814 2233.1250000  -999.250000
 1132.0272000 105.86521912 0.2540999949 2.1443998814 2252.8022461  -999.250000
 1132.1796000 107.18927002 0.2540999949 2.1443998814 2254.4018555  -999.250000
 1132.3320000 113.76137543 0.2540999949 2.1443998814 2254.4018555  -999.250000
 1132.4844000 115.42285919 0.2540999949 2.1443998814 2254.4016113  -999.250000
 1132.6368000 115.42285919 0.2540999949 2.1443998814 2251.3874512  -999.250000
 1132.7892000 113.69555664 0.2540999949 2.1443998814 2250.8852539  -999.250000
 1132.9416000 110.78279114 0.2540999949 2.1443998814 2235.5163574  -999.250000
 1133.0940000 110.28165436 0.2540999949 2.1443998814 2235.2846680  -999.250000
 1133.2464000 110.28165436 0.2540999949 2.1443998814 2235.2846680  -999.250000
 1133.3988000 110.51608276 0.2540999949 2.1443998814 2240.5014648  -999.250000
 1133.5512000 111.82355499 0.2540999949 2.1443998814 2254.7824707  -999.250000
 1133.7036000 114.15896606 0.2540999949 2.1443998814 2255.6835938  -999.250000
 1133.8560000 116.93266296 0.2540999949 2.1443998814 2255.6835938  -999.250000
 1134.0084000 119.14001465 0.2540999949 2.1443998814 2250.7839355  -999.250000
 1134.1608000 120.08946228 0.2540999949 2.1443998814 2235.0805664  -999.250000
 1134.3132000 120.27765656 0.2540999949 2.1443998814 2212.1367188  -999.250000
 1134.4656000 120.27765656 0.2540999949 2.1443998814 2205.7626953  -999.250000
 1134.6180000 119.78665924 0.2540999949 2.1443998814 2205.4375000  -999.250000
 1134.7704000 115.34421539 0.2540999949 2.1443998814 2205.4375000  -999.250000
 1134.9228000 111.46329498 0.2540999949 2.1443998814 2208.0334473  -999.250000
 1135.0752000 108.85638428 0.2540999949 2.1443998814 2219.1105957  -999.250000
 1135.2276000 107.45451355 0.2540999949 2.1443998814 2242.9772949  -999.250000
 1135.3800000 106.41457367 0.2540999949 2.1443998814 2251.4536133  -999.250000
 1135.5324000 106.41457367 0.2540999949 2.1443998814 2251.4536133  -999.250000
 1135.6848000 106.41457367 0.2540999949 2.1443998814 2239.9768066  -999.250000
 1135.8372000 106.41457367 0.2540999949 2.1443998814 2207.7817383  -999.250000
 1135.9896000 106.41316223 0.2540999949 2.1443998814 2199.3007813  -999.250000
 1136.1420000 105.74883270 0.2540999949 2.1443998814 2199.3007813  -999.250000
