# LAS format log file from PETREL
# Project units are specified as depth units
#==================================================================
~Version information
VERS.   2.0:
WRAP.   NO:
#==================================================================
~Well
STRT .m      172.51680000 :
STOP .m      3749.8020000 :
STEP .m     0.15240000 :
NULL .        -999.250000 :
COMP.           : COMPANY
WELL.  15/9-F-14   : WELL
FLD.            : FIELD
LOC.            : LOCATION
SRVC.           : SERVICE COMPANY
DATE.  2019-09-28 20:20:01   : Log Export Date {yyyy-MM-dd HH:mm:ss}
PROV.           : PROVINCE
UWI.   5351   : UNIQUE WELL ID
API.            : API NUMBER
#==================================================================
~Curve
DEPT .m                   : DEPTH
GR .gAPI                  : GR
NPHI .m3/m3               : NPHI
RHOB .g/cm3               : RHOB
Vp .m/s                   : Vp
Vs .m/s                   : Vs
~Parameter
#==================================================================
~Ascii
 172.51680000 6.6951999664 0.2540999949 2.1443998814  -999.250000  -999.250000
 172.66920000 7.7826499939 0.2540999949 2.1443998814  -999.250000  -999.250000
 172.82160000 8.8701000214 0.2540999949 2.1443998814  -999.250000  -999.250000
 172.97400000 10.425600052 0.2540999949 2.1443998814  -999.250000  -999.250000
 173.12640000 10.425600052 0.2540999949 2.1443998814  -999.250000  -999.250000
 173.27880000 10.869899750 0.2540999949 2.1443998814  -999.250000  -999.250000
 173.43120000 10.869899750 0.2540999949 2.1443998814  -999.250000  -999.250000
 173.58360000 10.869899750 0.2540999949 2.1443998814  -999.250000  -999.250000
 173.73600000 13.112299919 0.2540999949 2.1443998814  -999.250000  -999.250000
 173.88840000 14.840299606 0.2540999949 2.1443998814  -999.250000  -999.250000
 174.04080000 14.840299606 0.2540999949 2.1443998814  -999.250000  -999.250000
 174.19320000 14.840299606 0.2540999949 2.1443998814  -999.250000  -999.250000
 174.34560000 13.139300346 0.2540999949 2.1443998814  -999.250000  -999.250000
 174.49800000 11.438300133 0.2540999949 2.1443998814  -999.250000  -999.250000
 174.65040000 10.576499939 0.2540999949 2.1443998814  -999.250000  -999.250000
 174.80280000 10.576499939 0.2540999949 2.1443998814  -999.250000  -999.250000
 174.95520000 10.576499939 0.2540999949 2.1443998814  -999.250000  -999.250000
 175.10760000 12.091600418 0.2540999949 2.1443998814  -999.250000  -999.250000
 175.26000000 17.001600266 0.2540999949 2.1443998814  -999.250000  -999.250000
 175.41240000 21.911699295 0.2540999949 2.1443998814  -999.250000  -999.250000
 175.56480000 29.320400238 0.2540999949 2.1443998814  -999.250000  -999.250000
 175.71720000 30.835515976 0.2540999949 2.1443998814  -999.250000  -999.250000
 175.86960000 32.350631714 0.2540999949 2.1443998814  -999.250000  -999.250000
 176.02200000 33.865749359 0.2540999949 2.1443998814  -999.250000  -999.250000
 176.17440000 30.745225906 0.2540999949 2.1443998814  -999.250000  -999.250000
 176.32680000 27.624700546 0.2540999949 2.1443998814  -999.250000  -999.250000
 176.47920000 12.469599724 0.2540999949 2.1443998814  -999.250000  -999.250000
 176.63160000 11.286899567 0.2540999949 2.1443998814  -999.250000  -999.250000
 176.78400000 11.286899567 0.2540999949 2.1443998814  -999.250000  -999.250000
 176.93640000 11.286899567 0.2540999949 2.1443998814  -999.250000  -999.250000
 177.08880000 11.416000366 0.2540999949 2.1443998814  -999.250000  -999.250000
 177.24120000 11.416000366 0.2540999949 2.1443998814  -999.250000  -999.250000
 177.39360000 11.416000366 0.2540999949 2.1443998814  -999.250000  -999.250000
 177.54600000 11.590999603 0.2540999949 2.1443998814  -999.250000  -999.250000
 177.69840000 12.170700073 0.2540999949 2.1443998814  -999.250000  -999.250000
 177.85080000 12.750399590 0.2540999949 2.1443998814  -999.250000  -999.250000
 178.00320000 13.344300270 0.2540999949 2.1443998814  -999.250000  -999.250000
 178.15560000 14.596899986 0.2540999949 2.1443998814  -999.250000  -999.250000
 178.30800000 15.849499702 0.2540999949 2.1443998814  -999.250000  -999.250000
 178.46040000 16.840200424 0.2540999949 2.1443998814  -999.250000  -999.250000
 178.61280000 16.840200424 0.2540999949 2.1443998814  -999.250000  -999.250000
 178.76520000 16.840200424 0.2540999949 2.1443998814  -999.250000  -999.250000
 178.91760000 16.502700806 0.2540999949 2.1443998814  -999.250000  -999.250000
 179.07000000 16.074800491 0.2540999949 2.1443998814  -999.250000  -999.250000
 179.22240000 15.540499687 0.2540999949 2.1443998814  -999.250000  -999.250000
 179.37480000 15.006099701 0.2540999949 2.1443998814  -999.250000  -999.250000
 179.52720000 14.415599823 0.2540999949 2.1443998814  -999.250000  -999.250000
 179.67960000 13.566200256 0.2540999949 2.1443998814  -999.250000  -999.250000
 179.83200000 12.716799736 0.2540999949 2.1443998814  -999.250000  -999.250000
 179.98440000 11.867400169 0.2540999949 2.1443998814  -999.250000  -999.250000
 180.13680000 11.264200211 0.2540999949 2.1443998814  -999.250000  -999.250000
 180.28920000 10.689100266 0.2540999949 2.1443998814  -999.250000  -999.250000
 180.44160000 10.114000320 0.2540999949 2.1443998814  -999.250000  -999.250000
 180.59400000 9.6687002182 0.2540999949 2.1443998814  -999.250000  -999.250000
 180.74640000 9.3041000366 0.2540999949 2.1443998814  -999.250000  -999.250000
 180.89880000 9.3041000366 0.2540999949 2.1443998814  -999.250000  -999.250000
 181.05120000 9.3041000366 0.2540999949 2.1443998814  -999.250000  -999.250000
 181.20360000 10.453499794 0.2540999949 2.1443998814  -999.250000  -999.250000
 181.35600000 11.767999649 0.2540999949 2.1443998814  -999.250000  -999.250000
 181.50840000 11.767999649 0.2540999949 2.1443998814  -999.250000  -999.250000
 181.66080000 11.767999649 0.2540999949 2.1443998814  -999.250000  -999.250000
 181.81320000 11.296400070 0.2540999949 2.1443998814  -999.250000  -999.250000
 181.96560000 10.462599754 0.2540999949 2.1443998814  -999.250000  -999.250000
 182.11800000 9.9151000977 0.2540999949 2.1443998814  -999.250000  -999.250000
 182.27040000 9.9151000977 0.2540999949 2.1443998814  -999.250000  -999.250000
 182.42280000 9.9151000977 0.2540999949 2.1443998814  -999.250000  -999.250000
 182.57520000 10.125499725 0.2540999949 2.1443998814  -999.250000  -999.250000
 182.72760000 12.909099579 0.2540999949 2.1443998814  -999.250000  -999.250000
 182.88000000 13.308149338 0.2540999949 2.1443998814  -999.250000  -999.250000
 183.03240000 13.707199097 0.2540999949 2.1443998814  -999.250000  -999.250000
 183.18480000 14.106249809 0.2540999949 2.1443998814  -999.250000  -999.250000
 183.33720000 13.542175293 0.2540999949 2.1443998814  -999.250000  -999.250000
 183.48960000 12.978099823 0.2540999949 2.1443998814  -999.250000  -999.250000
 183.64200000 11.138899803 0.2540999949 2.1443998814  -999.250000  -999.250000
 183.79440000 9.2768001556 0.2540999949 2.1443998814  -999.250000  -999.250000
 183.94680000 9.2768001556 0.2540999949 2.1443998814  -999.250000  -999.250000
 184.09920000 9.2768001556 0.2540999949 2.1443998814  -999.250000  -999.250000
 184.25160000 9.5838003159 0.2540999949 2.1443998814  -999.250000  -999.250000
 184.40400000 11.291399956 0.2540999949 2.1443998814  -999.250000  -999.250000
 184.55640000 11.863200188 0.2540999949 2.1443998814  -999.250000  -999.250000
 184.70880000 11.863200188 0.2540999949 2.1443998814  -999.250000  -999.250000
 184.86120000 11.863200188 0.2540999949 2.1443998814  -999.250000  -999.250000
 185.01360000 11.576800346 0.2540999949 2.1443998814  -999.250000  -999.250000
 185.16600000 10.535699844 0.2540999949 2.1443998814  -999.250000  -999.250000
 185.31840000 9.4946002960 0.2540999949 2.1443998814  -999.250000  -999.250000
 185.47080000 8.4534997940 0.2540999949 2.1443998814  -999.250000  -999.250000
 185.62320000 8.1371002197 0.2540999949 2.1443998814  -999.250000  -999.250000
 185.77560000 7.9924998283 0.2540999949 2.1443998814  -999.250000  -999.250000
 185.92800000 7.8478999138 0.2540999949 2.1443998814  -999.250000  -999.250000
 186.08040000 7.3035998344 0.2540999949 2.1443998814  -999.250000  -999.250000
 186.23280000 6.4014000893 0.2540999949 2.1443998814  -999.250000  -999.250000
 186.38520000 5.9100999832 0.2540999949 2.1443998814  -999.250000  -999.250000
 186.53760000 5.9100999832 0.2540999949 2.1443998814  -999.250000  -999.250000
 186.69000000 5.9100999832 0.2540999949 2.1443998814  -999.250000  -999.250000
 186.84240000 6.7848000526 0.2540999949 2.1443998814  -999.250000  -999.250000
 186.99480000 7.6595001221 0.2540999949 2.1443998814  -999.250000  -999.250000
 187.14720000 8.0395002365 0.2540999949 2.1443998814  -999.250000  -999.250000
 187.29960000 8.4020004272 0.2540999949 2.1443998814  -999.250000  -999.250000
 187.45200000 8.7644996643 0.2540999949 2.1443998814  -999.250000  -999.250000
 187.60440000 9.8851995468 0.2540999949 2.1443998814  -999.250000  -999.250000
 187.75680000 11.354399681 0.2540999949 2.1443998814  -999.250000  -999.250000
 187.90920000 12.504699707 0.2540999949 2.1443998814  -999.250000  -999.250000
