# LAS format log file from PETREL
# Project units are specified as depth units
#==================================================================
~Version information
VERS.   2.0:
WRAP.   NO:
#==================================================================
~Well
STRT .m      172.51680000 :
STOP .m      3749.8020000 :
STEP .m     0.15240000 :
NULL .        -999.250000 :
COMP.           : COMPANY
WELL.  15/9-F-14   : WELL
FLD.            : FIELD
LOC.            : LOCATION
SRVC.           : SERVICE COMPANY
DATE.  2019-09-28 20:20:01   : Log Export Date {yyyy-MM-dd HH:mm:ss}
PROV.           : PROVINCE
UWI.   5351   : UNIQUE WELL ID
API.            : API NUMBER
#==================================================================
~Curve
DEPT .m                   : DEPTH
GR .gAPI                  : GR
NPHI .m3/m3               : NPHI
RHOB .g/cm3               : RHOB
Vp .m/s                   : Vp
Vs .m/s                   : Vs
~Parameter
#==================================================================
~Ascii
# ...
 2302.1544000 62.000305176 0.2540999949 2.1443998814 2709.8710938  -999.250000
 2302.3068000 68.052261353 0.2540999949 2.1443998814 2720.7578125  -999.250000
 2302.4592000 69.751014709 0.2540999949 2.1443998814 2736.4882813  -999.250000
 2302.6116000 69.751014709 0.2540999949 2.1443998814 2773.0976563  -999.250000
 2302.7640000 69.751014709 0.2540999949 2.1443998814 2797.3142090  -999.250000
 2302.9164000 66.198104858 0.2540999949 2.1443998814 2797.3142090  -999.250000
 2303.0688000 63.232814789 0.2540999949 2.1443998814 2797.3142090  -999.250000
 2303.2212000 61.404701233 0.2540999949 2.1443998814 2754.7778320  -999.250000
 2303.3736000 59.892959595 0.2540999949 2.1443998814 2751.3293457  -999.250000
 2303.5260000 58.288108826 0.2540999949 2.1443998814 2751.3293457  -999.250000
 2303.6784000 56.687908173 0.2540999949 2.1443998814 2751.3293457  -999.250000
 2303.8308000 55.062599182 0.2540999949 2.1443998814 2751.3293457  -999.250000
 2303.9832000 53.558418274 0.2540999949 2.1443998814 2751.3115234  -999.250000
 2304.1356000 52.466213226 0.2540999949 2.1443998814 2744.4465332  -999.250000
 2304.2880000 51.524707794 0.2540999949 2.1443998814 2719.3227539  -999.250000
 2304.4404000 50.663993835 0.2540999949 2.1443998814 2705.1660156  -999.250000
 2304.5928000 50.210418701 0.2540999949 2.1443998814 2702.9367676  -999.250000
 2304.7452000 50.086612701 0.2540999949 2.1443998814 2702.9367676  -999.250000
 2304.8976000 49.953044891 0.2540999949 2.1443998814 2703.1982422  -999.250000
 2305.0500000 49.646560669 0.2540999949 2.1443998814 2715.5205078  -999.250000
 2305.2024000 49.106658936 0.2540999949 2.1443998814 2716.2717285  -999.250000
 2305.3548000 48.471469879 0.2540999949 2.1443998814 2722.8676758  -999.250000
 2305.5072000 47.761837006 0.2540999949 2.1443998814 2725.9372559  -999.250000
 2305.6596000 45.652557373 0.2540999949 2.1443998814 2725.9372559  -999.250000
 2305.8120000 43.449054718 0.2540999949 2.1443998814 2725.2092285  -999.250000
 2305.9644000 43.227676392 0.2540999949 2.1443998814 2702.7746582  -999.250000
 2306.1168000 43.227676392 0.2540999949 2.1443998814 2669.2202148  -999.250000
 2306.2692000 43.358238220 0.2540999949 2.1443998814 2666.8828125  -999.250000
 2306.4216000 43.892181396 0.2540999949 2.1443998814 2666.8828125  -999.250000
 2306.5740000 43.892181396 0.2540999949 2.1443998814 2677.1127930  -999.250000
 2306.7264000 43.892181396 0.2540999949 2.1443998814 2734.3474121  -999.250000
 2306.8788000 42.771972656 0.2540999949 2.1443998814 2785.0620117  -999.250000
 2307.0312000 41.999877930 0.2540999949 2.1443998814 2785.0620117  -999.250000
 2307.1836000 41.905094147 0.2540999949 2.1443998814 2785.0620117  -999.250000
 2307.3360000 41.905094147 0.2540999949 2.1443998814 2792.2478027  -999.250000
 2307.4884000 41.906730652 0.2540999949 2.1443998814 2797.6728516  -999.250000
 2307.6408000 44.920536041 0.2540999949 2.1443998814 2797.7246094  -999.250000
 2307.7932000 47.116233826 0.2540999949 2.1443998814 2798.8752441  -999.250000
 2307.9456000 47.394672394 0.2540999949 2.1443998814 2812.2507324  -999.250000
 2308.0980000 47.394672394 0.2540999949 2.1443998814 2812.5458984  -999.250000
 2308.2504000 46.931644440 0.2540999949 2.1443998814 2812.5458984  -999.250000
 2308.4028000 43.683769226 0.2540999949 2.1443998814 2806.2583008  -999.250000
 2308.5552000 43.683769226 0.2540999949 2.1443998814 2796.9802246  -999.250000
 2308.7076000 43.683769226 0.2540999949 2.1443998814 2796.9802246  -999.250000
 2308.8600000 44.927459717 0.2540999949 2.1443998814 2796.9802246  -999.250000
 2309.0124000 46.868064880 0.2540999949 2.1443998814 2822.0495605  -999.250000
 2309.1648000 48.136302948 0.2540999949 2.1443998814 2824.9384766  -999.250000
 2309.3172000 48.922744751 0.2540999949 2.1443998814 2824.9929199  -999.250000
 2309.4696000 48.922744751 0.2540999949 2.1443998814 2827.4118652  -999.250000
 2309.6220000 48.922744751 0.2540999949 2.1443998814 2839.3117676  -999.250000
 2309.7744000 48.441894531 0.2540999949 2.1443998814 2849.7719727  -999.250000
 2309.9268000 47.261093140 0.2540999949 2.1443998814 2907.8725586  -999.250000
 2310.0792000 45.353576660 0.2540999949 2.1443998814 2911.3017578  -999.250000
 2310.2316000 42.534183502 0.2540999949 2.1443998814 2911.3017578  -999.250000
 2310.3840000 39.671527863 0.2540999949 2.1443998814 2909.9658203  -999.250000
 2310.5364000 37.263290405 0.2540999949 2.1443998814 2900.8796387  -999.250000
 2310.6888000 36.008991241 0.2540999949 2.1443998814 2882.2819824  -999.250000
 2310.8412000 35.838764191 0.2540999949 2.1443998814 2861.1108398  -999.250000
 2310.9936000 35.838764191 0.2540999949 2.1443998814 2874.7119141  -999.250000
 2311.1460000 36.055461884 0.2540999949 2.1443998814 2882.2722168  -999.250000
 2311.2984000 39.519786835 0.2540999949 2.1443998814 2883.1757813  -999.250000
 2311.4508000 42.470184326 0.2540999949 2.1443998814 2882.6652832  -999.250000
 2311.6032000 44.000270844 0.2540999949 2.1443998814 2879.3564453  -999.250000
 2311.7556000 45.115310669 0.2540999949 2.1443998814 2879.3564453  -999.250000
 2311.9080000 45.483673096 0.2540999949 2.1443998814 2858.5966797  -999.250000
 2312.0604000 45.501728058 0.2540999949 2.1443998814 2854.5214844  -999.250000
 2312.2128000 45.501728058 0.2540999949 2.1443998814 2854.5214844  -999.250000
 2312.3652000 45.501728058 0.2540999949 2.1443998814 2859.8798828  -999.250000
 2312.5176000 44.993213654 0.2540999949 2.1443998814 2887.1794434  -999.250000
 2312.6700000 43.276374817 0.2540999949 2.1443998814 2887.1794434  -999.250000
 2312.8224000 42.533199310 0.2540999949 2.1443998814 2887.1794434  -999.250000
 2312.9748000 42.533199310 0.2540999949 2.1443998814 2881.9912109  -999.250000
 2313.1272000 42.535865784 0.2540999949 2.1443998814 2877.6796875  -999.250000
 2313.2796000 42.858249664 0.2540999949 2.1443998814 2871.6857910  -999.250000
 2313.4320000 44.276897430 0.2540999949 2.1443998814 2854.7656250  -999.250000
 2313.5844000 45.751770020 0.2540999949 2.1443998814 2854.7656250  -999.250000
 2313.7368000 46.861255646 0.2540999949 2.1443998814 2854.7656250  -999.250000
 2313.8892000 47.280666351 0.2540999949 2.1443998814 2854.7656250  -999.250000
 2314.0416000 47.280666351 0.2540999949 2.1443998814 2874.2207031  -999.250000
 2314.1940000 47.280666351 0.2540999949 2.1443998814 2953.6628418  -999.250000
 2314.3464000 46.414852142 0.2540999949 2.1443998814 3024.4990234  -999.250000
 2314.4988000 46.288356781 0.2540999949 2.1443998814 3024.4990234  -999.250000
 2314.6512000 46.288356781 0.2540999949 2.1443998814 3030.0417480  -999.250000
 2314.8036000 46.457450867 0.2540999949 2.1443998814 3033.6369629  -999.250000
 2314.9560000 47.477821350 0.2540999949 2.1443998814 3034.1293945  -999.250000
 2315.1084000 48.065689087 0.2540999949 2.1443998814 3034.1293945  -999.250000
 2315.2608000 48.504154205 0.2540999949 2.1443998814 3034.1293945  -999.250000
 2315.4132000 49.048069000 0.2540999949 2.1443998814 3034.1259766  -999.250000
 2315.5656000 50.288688660 0.2540999949 2.1443998814 3028.0070801  -999.250000
 2315.7180000 52.450901031 0.2540999949 2.1443998814 3017.1596680  -999.250000
 2315.8704000 54.885276794 0.2540999949 2.1443998814 3015.1623535  -999.250000
 2316.0228000 57.572097778 0.2540999949 2.1443998814 3015.1623535  -999.250000
 2316.1752000 62.285530090 0.2540999949 2.1443998814 3015.6623535  -999.250000
 2316.3276000 67.103729248 0.2540999949 2.1443998814 3024.9001465  -999.250000
 2316.4800000 71.785408020 0.2540999949 2.1443998814 3056.7065430  -999.250000
 2316.6324000 76.295257568 0.2540999949 2.1443998814 3076.7131348  -999.250000
 2316.7848000 80.730384827 0.2540999949 2.1443998814 3088.8041992  -999.250000
 2316.9372000 85.073921204 0.2540999949 2.1443998814 3093.7172852  -999.250000
 2317.0896000 87.607261658 0.2540999949 2.1443998814 3094.7128906  -999.250000
 2317.2420000 87.691513062 0.2540999949 2.1443998814 3094.7255859  -999.250000
 2317.3944000 87.691513062 0.2540999949 2.1443998814 3096.5737305  -999.250000
 2317.5468000 85.217849731 0.2540999949 2.1443998814 3123.5510254  -999.250000
