# LAS format log file from PETREL
# Project units are specified as depth units
#==================================================================
~Version information
VERS.   2.0:
WRAP.   NO:
#==================================================================
~Well
STRT .m      172.51680000 :
STOP .m      3749.8020000 :
STEP .m     0.15240000 :
NULL .        -999.250000 :
COMP.           : COMPANY
WELL.  15/9-F-14   : WELL
FLD.            : FIELD
LOC.            : LOCATION
SRVC.           : SERVICE COMPANY
DATE.  2019-09-28 20:20:01   : Log Export Date {yyyy-MM-dd HH:mm:ss}
PROV.           : PROVINCE
UWI.   5351   : UNIQUE WELL ID
API.            : API NUMBER
#==================================================================
~Curve
DEPT .m                   : DEPTH
GR .gAPI                  : GR
NPHI .m3/m3               : NPHI
RHOB .g/cm3               : RHOB
Vp .m/s                   : Vp
Vs .m/s                   : Vs
~Parameter
#==================================================================
~Ascii
# ...
 405.68880000 91.316284180 0.2540999949 2.1443998814  -999.250000  -999.250000
 405.84120000 91.206718445 0.2540999949 2.1443998814  -999.250000  -999.250000
 405.99360000 91.097183228 0.2540999949 2.1443998814  -999.250000  -999.250000
 406.14600000 90.987617493 0.2540999949 2.1443998814  -999.250000  -999.250000
 406.29840000 90.878082275 0.2540999949 2.1443998814  -999.250000  -999.250000
 406.45080000 90.768516541 0.2540999949 2.1443998814  -999.250000  -999.250000
 406.60320000 90.658996582 0.2540999949 2.1443998814  -999.250000  -999.250000
 406.75560000 90.549484253 0.2540999949 2.1443998814  -999.250000  -999.250000
 406.90800000 90.439918518 0.2540999949 2.1443998814  -999.250000  -999.250000
 407.06040000 90.330398560 0.2540999949 2.1443998814  -999.250000  -999.250000
 407.21280000 90.220886230 0.2540999949 2.1443998814  -999.250000  -999.250000
 407.36520000 90.111320496 0.2540999949 2.1443998814  -999.250000  -999.250000
 407.51760000 90.001777649 0.2540999949 2.1443998814  -999.250000  -999.250000
 407.67000000 89.892211914 0.2540999949 2.1443998814  -999.250000  -999.250000
 407.82240000 89.782699585 0.2540999949 2.1443998814  -999.250000  -999.250000
 407.97480000 89.665924072 0.2540999949 2.1443998814  -999.250000  -999.250000
 408.12720000 89.597343445 0.2540999949 2.1443998814  -999.250000  -999.250000
 408.27960000 89.597343445 0.2540999949 2.1443998814  -999.250000  -999.250000
 408.43200000 89.599258423 0.2540999949 2.1443998814  -999.250000  -999.250000
 408.58440000 89.760002136 0.2540999949 2.1443998814  -999.250000  -999.250000
 408.73680000 90.653244019 0.2540999949 2.1443998814  -999.250000  -999.250000
 408.88920000 90.984977722 0.2540999949 2.1443998814  -999.250000  -999.250000
 409.04160000 90.984977722 0.2540999949 2.1443998814  -999.250000  -999.250000
 409.19400000 90.729255676 0.2540999949 2.1443998814  -999.250000  -999.250000
 409.34640000 89.115844727 0.2540999949 2.1443998814  -999.250000  -999.250000
 409.49880000 88.644104004 0.2540999949 2.1443998814  -999.250000  -999.250000
 409.65120000 88.644104004 0.2540999949 2.1443998814  -999.250000  -999.250000
 409.80360000 88.644104004 0.2540999949 2.1443998814  -999.250000  -999.250000
 409.95600000 88.644104004 0.2540999949 2.1443998814  -999.250000  -999.250000
 410.10840000 88.547607422 0.2540999949 2.1443998814  -999.250000  -999.250000
 410.26080000 87.399703979 0.2540999949 2.1443998814  -999.250000  -999.250000
 410.41320000 86.378997803 0.2540999949 2.1443998814  -999.250000  -999.250000
 410.56560000 86.378997803 0.2540999949 2.1443998814  -999.250000  -999.250000
 410.71800000 86.361816406 0.2540999949 2.1443998814  -999.250000  -999.250000
 410.87040000 86.279106140 0.2540999949 2.1443998814  -999.250000  -999.250000
 411.02280000 86.273422241 0.2540999949 2.1443998814  -999.250000  -999.250000
 411.17520000 85.921318054 0.2540999949 2.1443998814  -999.250000  -999.250000
 411.32760000 83.196037292 0.2540999949 2.1443998814  -999.250000  -999.250000
 411.48000000 81.458511353 0.2540999949 2.1443998814  -999.250000  -999.250000
 411.63240000 81.458511353 0.2540999949 2.1443998814  -999.250000  -999.250000
 411.78480000 81.475860596 0.2540999949 2.1443998814  -999.250000  -999.250000
 411.93720000 81.691902161 0.2540999949 2.1443998814  -999.250000  -999.250000
 412.08960000 81.948783875 0.2540999949 2.1443998814  -999.250000  -999.250000
 412.24200000 82.106422424 0.2540999949 2.1443998814  -999.250000  -999.250000
 412.39440000 82.106422424 0.2540999949 2.1443998814  -999.250000  -999.250000
 412.54680000 82.050643921 0.2540999949 2.1443998814  -999.250000  -999.250000
 412.69920000 81.689437866 0.2540999949 2.1443998814  -999.250000  -999.250000
 412.85160000 81.689437866 0.2540999949 2.1443998814  -999.250000  -999.250000
 413.00400000 81.746940613 0.2540999949 2.1443998814  -999.250000  -999.250000
 413.15640000 83.088500977 0.2540999949 2.1443998814  -999.250000  -999.250000
 413.30880000 87.006164551 0.2540999949 2.1443998814  -999.250000  -999.250000
 413.46120000 90.393089294 0.2540999949 2.1443998814  -999.250000  -999.250000
 413.61360000 92.776580811 0.2540999949 2.1443998814  -999.250000  -999.250000
 413.76600000 94.185997009 0.2540999949 2.1443998814  -999.250000  -999.250000
 413.91840000 94.185997009 0.2540999949 2.1443998814  -999.250000  -999.250000
 414.07080000 94.106018066 0.2540999949 2.1443998814  -999.250000  -999.250000
 414.22320000 92.229873657 0.2540999949 2.1443998814  -999.250000  -999.250000
 414.37560000 88.340644836 0.2540999949 2.1443998814  -999.250000  -999.250000
 414.52800000 86.626419067 0.2540999949 2.1443998814  -999.250000  -999.250000
 414.68040000 86.626419067 0.2540999949 2.1443998814  -999.250000  -999.250000
 414.83280000 86.685127258 0.2540999949 2.1443998814  -999.250000  -999.250000
 414.98520000 87.433616638 0.2540999949 2.1443998814  -999.250000  -999.250000
 415.13760000 87.626625061 0.2540999949 2.1443998814  -999.250000  -999.250000
 415.29000000 87.737854004 0.2540999949 2.1443998814  -999.250000  -999.250000
 415.44240000 87.884315491 0.2540999949 2.1443998814  -999.250000  -999.250000
 415.59480000 88.777671814 0.2540999949 2.1443998814  -999.250000  -999.250000
 415.74720000 90.214935303 0.2540999949 2.1443998814  -999.250000  -999.250000
 415.89960000 91.653388977 0.2540999949 2.1443998814  -999.250000  -999.250000
 416.05200000 92.857368469 0.2540999949 2.1443998814  -999.250000  -999.250000
 416.20440000 93.554946899 0.2540999949 2.1443998814  -999.250000  -999.250000
 416.35680000 93.688232422 0.2540999949 2.1443998814  -999.250000  -999.250000
 416.50920000 93.688232422 0.2540999949 2.1443998814  -999.250000  -999.250000
 416.66160000 93.616981506 0.2540999949 2.1443998814  -999.250000  -999.250000
 416.81400000 91.778717041 0.2540999949 2.1443998814  -999.250000  -999.250000
 416.96640000 90.167030334 0.2540999949 2.1443998814  -999.250000  -999.250000
 417.11880000 88.807502747 0.2540999949 2.1443998814  -999.250000  -999.250000
 417.27120000 87.506729126 0.2540999949 2.1443998814  -999.250000  -999.250000
 417.42360000 86.400886536 0.2540999949 2.1443998814  -999.250000  -999.250000
 417.57600000 86.400886536 0.2540999949 2.1443998814  -999.250000  -999.250000
 417.72840000 86.419189453 0.2540999949 2.1443998814  -999.250000  -999.250000
 417.88080000 87.066123962 0.2540999949 2.1443998814  -999.250000  -999.250000
 418.03320000 87.806327820 0.2540999949 2.1443998814  -999.250000  -999.250000
 418.18560000 88.947555542 0.2540999949 2.1443998814  -999.250000  -999.250000
 418.33800000 89.303085327 0.2540999949 2.1443998814  -999.250000  -999.250000
 418.49040000 89.303085327 0.2540999949 2.1443998814  -999.250000  -999.250000
 418.64280000 89.200393677 0.2540999949 2.1443998814  -999.250000  -999.250000
 418.79520000 86.501541138 0.2540999949 2.1443998814  -999.250000  -999.250000
 418.94760000 86.501541138 0.2540999949 2.1443998814  -999.250000  -999.250000
 419.10000000 86.518264771 0.2540999949 2.1443998814  -999.250000  -999.250000
 419.25240000 87.720970154 0.2540999949 2.1443998814  -999.250000  -999.250000
 419.40480000 91.191154480 0.2540999949 2.1443998814  -999.250000  -999.250000
 419.55720000 96.839141846 0.2540999949 2.1443998814  -999.250000  -999.250000
 419.70960000 106.33354950 0.2540999949 2.1443998814  -999.250000  -999.250000
 419.86200000 115.95880890 0.2540999949 2.1443998814  -999.250000  -999.250000
 420.01440000 124.76228333 0.2540999949 2.1443998814  -999.250000  -999.250000
 420.16680000 127.70512390 0.2540999949 2.1443998814  -999.250000  -999.250000
 420.31920000 130.54782104 0.2540999949 2.1443998814  -999.250000  -999.250000
 420.47160000 133.41203308 0.2540999949 2.1443998814  -999.250000  -999.250000
 420.62400000 136.52203369 0.2540999949 2.1443998814  -999.250000  -999.250000
 420.77640000 139.69447327 0.2540999949 2.1443998814  -999.250000  -999.250000
 420.92880000 142.86167908 0.2540999949 2.1443998814  -999.250000  -999.250000
 421.08120000 145.57908630 0.2540999949 2.1443998814  -999.250000  -999.250000
