# LAS format log file from PETREL
# Project units are specified as depth units
#==================================================================
~Version information
VERS.   2.0:
WRAP.   NO:
#==================================================================
~Well
STRT .m      172.51680000 :
STOP .m      3749.8020000 :
STEP .m     0.15240000 :
NULL .        -999.250000 :
COMP.           : COMPANY
WELL.  15/9-F-14   : WELL
FLD.            : FIELD
LOC.            : LOCATION
SRVC.           : SERVICE COMPANY
DATE.  2019-09-28 20:20:01   : Log Export Date {yyyy-MM-dd HH:mm:ss}
PROV.           : PROVINCE
UWI.   5351   : UNIQUE WELL ID
API.            : API NUMBER
#==================================================================
~Curve
DEPT .m                   : DEPTH
GR .gAPI                  : GR
NPHI .m3/m3               : NPHI
RHOB .g/cm3               : RHOB
Vp .m/s                   : Vp
Vs .m/s                   : Vs
~Parameter
#==================================================================
~Ascii
# ...
 654.40560000 98.696052551 0.2540999949 2.1443998814  -999.250000  -999.250000
 654.55800000 99.707717896 0.2540999949 2.1443998814  -999.250000  -999.250000
 654.71040000 101.73720551 0.2540999949 2.1443998814  -999.250000  -999.250000
 654.86280000 103.76720428 0.2540999949 2.1443998814  -999.250000  -999.250000
 655.01520000 106.57295990 0.2540999949 2.1443998814  -999.250000  -999.250000
 655.16760000 116.37043762 0.2540999949 2.1443998814  -999.250000  -999.250000
 655.32000000 126.19521332 0.2540999949 2.1443998814  -999.250000  -999.250000
 655.47240000 135.25354004 0.2540999949 2.1443998814  -999.250000  -999.250000
 655.62480000 135.27770996 0.2540999949 2.1443998814  -999.250000  -999.250000
 655.77720000 135.27770996 0.2540999949 2.1443998814  -999.250000  -999.250000
 655.92960000 135.27770996 0.2540999949 2.1443998814  -999.250000  -999.250000
 656.08200000 135.27770996 0.2540999949 2.1443998814  -999.250000  -999.250000
 656.23440000 137.42858887 0.2540999949 2.1443998814  -999.250000  -999.250000
 656.38680000 137.47506714 0.2540999949 2.1443998814  -999.250000  -999.250000
 656.53920000 137.47506714 0.2540999949 2.1443998814  -999.250000  -999.250000
 656.69160000 130.99185181 0.2540999949 2.1443998814  -999.250000  -999.250000
 656.84400000 123.52506256 0.2540999949 2.1443998814  -999.250000  -999.250000
 656.99640000 123.33041382 0.2540999949 2.1443998814  -999.250000  -999.250000
 657.14880000 123.33041382 0.2540999949 2.1443998814  -999.250000  -999.250000
 657.30120000 131.24804688 0.2540999949 2.1443998814  -999.250000  -999.250000
 657.45360000 131.79176331 0.2540999949 2.1443998814  -999.250000  -999.250000
 657.60600000 131.79176331 0.2540999949 2.1443998814  -999.250000  -999.250000
 657.75840000 129.96368408 0.2540999949 2.1443998814  -999.250000  -999.250000
 657.91080000 124.34747314 0.2540999949 2.1443998814  -999.250000  -999.250000
 658.06320000 119.38790131 0.2540999949 2.1443998814  -999.250000  -999.250000
 658.21560000 116.16405487 0.2540999949 2.1443998814  -999.250000  -999.250000
 658.36800000 113.08745575 0.2540999949 2.1443998814  -999.250000  -999.250000
 658.52040000 109.62794495 0.2540999949 2.1443998814  -999.250000  -999.250000
 658.67280000 104.94277191 0.2540999949 2.1443998814  -999.250000  -999.250000
 658.82520000 99.378913879 0.2540999949 2.1443998814  -999.250000  -999.250000
 658.97760000 97.680831909 0.2540999949 2.1443998814  -999.250000  -999.250000
 659.13000000 97.597930908 0.2540999949 2.1443998814  -999.250000  -999.250000
 659.28240000 97.597930908 0.2540999949 2.1443998814  -999.250000  -999.250000
 659.43480000 98.629081726 0.2540999949 2.1443998814  -999.250000  -999.250000
 659.58720000 101.13077545 0.2540999949 2.1443998814  -999.250000  -999.250000
 659.73960000 104.64759827 0.2540999949 2.1443998814  -999.250000  -999.250000
 659.89200000 106.18959045 0.2540999949 2.1443998814  -999.250000  -999.250000
 660.04440000 106.30479431 0.2540999949 2.1443998814  -999.250000  -999.250000
 660.19680000 106.30479431 0.2540999949 2.1443998814  -999.250000  -999.250000
 660.34920000 104.73526001 0.2540999949 2.1443998814  -999.250000  -999.250000
 660.50160000 103.53773499 0.2540999949 2.1443998814  -999.250000  -999.250000
 660.65400000 103.45968628 0.2540999949 2.1443998814  -999.250000  -999.250000
 660.80640000 103.45968628 0.2540999949 2.1443998814  -999.250000  -999.250000
 660.95880000 103.83451080 0.2540999949 2.1443998814  -999.250000  -999.250000
 661.11120000 105.90938568 0.2540999949 2.1443998814  -999.250000  -999.250000
 661.26360000 109.79212189 0.2540999949 2.1443998814  -999.250000  -999.250000
 661.41600000 110.73778534 0.2540999949 2.1443998814  -999.250000  -999.250000
 661.56840000 110.73778534 0.2540999949 2.1443998814  -999.250000  -999.250000
 661.72080000 110.53248596 0.2540999949 2.1443998814  -999.250000  -999.250000
 661.87320000 109.16612244 0.2540999949 2.1443998814  -999.250000  -999.250000
 662.02560000 106.72190094 0.2540999949 2.1443998814  -999.250000  -999.250000
 662.17800000 104.02003479 0.2540999949 2.1443998814  -999.250000  -999.250000
 662.33040000 100.71595764 0.2540999949 2.1443998814  -999.250000  -999.250000
 662.48280000 98.983100891 0.2540999949 2.1443998814  -999.250000  -999.250000
 662.63520000 98.491577148 0.2540999949 2.1443998814  -999.250000  -999.250000
 662.78760000 98.301307678 0.2540999949 2.1443998814  -999.250000  -999.250000
 662.94000000 98.198822021 0.2540999949 2.1443998814  -999.250000  -999.250000
 663.09240000 97.054809570 0.2540999949 2.1443998814  -999.250000  -999.250000
 663.24480000 93.395324707 0.2540999949 2.1443998814  -999.250000  -999.250000
 663.39720000 89.782196045 0.2540999949 2.1443998814  -999.250000  -999.250000
 663.54960000 87.410797119 0.2540999949 2.1443998814  -999.250000  -999.250000
 663.70200000 86.216346741 0.2540999949 2.1443998814  -999.250000  -999.250000
 663.85440000 85.861595154 0.2540999949 2.1443998814  -999.250000  -999.250000
 664.00680000 85.861595154 0.2540999949 2.1443998814  -999.250000  -999.250000
 664.15920000 85.968093872 0.2540999949 2.1443998814  -999.250000  -999.250000
 664.31160000 86.687019348 0.2540999949 2.1443998814  -999.250000  -999.250000
 664.46400000 87.755897522 0.2540999949 2.1443998814  -999.250000  -999.250000
 664.61640000 88.769233704 0.2540999949 2.1443998814  -999.250000  -999.250000
 664.76880000 89.807785034 0.2540999949 2.1443998814  -999.250000  -999.250000
 664.92120000 90.798309326 0.2540999949 2.1443998814  -999.250000  -999.250000
 665.07360000 91.410331726 0.2540999949 2.1443998814  -999.250000  -999.250000
 665.22600000 91.664863586 0.2540999949 2.1443998814  -999.250000  -999.250000
 665.37840000 91.948043823 0.2540999949 2.1443998814  -999.250000  -999.250000
 665.53080000 93.383499146 0.2540999949 2.1443998814  -999.250000  -999.250000
 665.68320000 98.436172485 0.2540999949 2.1443998814  -999.250000  -999.250000
 665.83560000 102.03813171 0.2540999949 2.1443998814  -999.250000  -999.250000
 665.98800000 102.03813171 0.2540999949 2.1443998814  -999.250000  -999.250000
 666.14040000 101.10845947 0.2540999949 2.1443998814  -999.250000  -999.250000
 666.29280000 92.026931763 0.2540999949 2.1443998814  -999.250000  -999.250000
 666.44520000 83.256622314 0.2540999949 2.1443998814  -999.250000  -999.250000
 666.59760000 77.985717773 0.2540999949 2.1443998814  -999.250000  -999.250000
 666.75000000 74.623825073 0.2540999949 2.1443998814  -999.250000  -999.250000
 666.90240000 72.266143799 0.2540999949 2.1443998814  -999.250000  -999.250000
 667.05480000 72.266143799 0.2540999949 2.1443998814  -999.250000  -999.250000
 667.20720000 72.386108398 0.2540999949 2.1443998814  -999.250000  -999.250000
 667.35960000 74.371368408 0.2540999949 2.1443998814  -999.250000  -999.250000
 667.51200000 76.045028687 0.2540999949 2.1443998814  -999.250000  -999.250000
 667.66440000 76.235992432 0.2540999949 2.1443998814  -999.250000  -999.250000
 667.81680000 76.341773987 0.2540999949 2.1443998814  -999.250000  -999.250000
 667.96920000 76.515197754 0.2540999949 2.1443998814  -999.250000  -999.250000
 668.12160000 78.269332886 0.2540999949 2.1443998814  -999.250000  -999.250000
 668.27400000 80.622207642 0.2540999949 2.1443998814  -999.250000  -999.250000
 668.42640000 82.639236450 0.2540999949 2.1443998814  -999.250000  -999.250000
 668.57880000 82.639236450 0.2540999949 2.1443998814  -999.250000  -999.250000
 668.73120000 82.639236450 0.2540999949 2.1443998814  -999.250000  -999.250000
 668.88360000 82.639236450 0.2540999949 2.1443998814  -999.250000  -999.250000
 669.03600000 82.655570984 0.2540999949 2.1443998814  -999.250000  -999.250000
 669.18840000 84.245109558 0.2540999949 2.1443998814  -999.250000  -999.250000
 669.34080000 87.034118652 0.2540999949 2.1443998814  -999.250000  -999.250000
 669.49320000 88.182998657 0.2540999949 2.1443998814  -999.250000  -999.250000
 669.64560000 88.182998657 0.2540999949 2.1443998814  -999.250000  -999.250000
 669.79800000 88.179771423 0.2540999949 2.1443998814  -999.250000  -999.250000
